{"containerpark":[{"id":"PUB044","thema":"publiek","type":"afvalvoorzieningen","subtype":"recyclagepark","naam":"Luchtbal","straat":"Noorderlaan","huisnummer":" ","postcode":"2030","district":"Antwerpen-Luchtbal","lgst_niv":"stadsdeel","hgst_niv":"stedelijk","grondopp":"3634.6399999999999","gebo":" ","pero":" ","begindatum":"2004-01-01T00:00:00","point_lng":"4.4197936170000389","point_lat":"51.262784517000057"},{"id":"PUB043","thema":"publiek","type":"afvalvoorzieningen","subtype":"recyclagepark","naam":"Zandvliet","straat":"Derdeweg","huisnummer":" ","postcode":"2040","district":"Berendrecht-Zandvliet-Lillo","lgst_niv":"stadsdeel","hgst_niv":"stedelijk","grondopp":"1216.8499999999999","gebo":" ","pero":" ","begindatum":"2004-01-01T00:00:00","point_lng":"4.3035547930000462","point_lat":"51.351727594000067"},{"id":"PUB051","thema":"publiek","type":"afvalvoorzieningen","subtype":"recyclagepark","naam":"Linkeroever (gepland eind 2007)","straat":"Blancefloerlaan","huisnummer":" ","postcode":"2050","district":"Antwerpen-Linkeroever","lgst_niv":"stadsdeel","hgst_niv":"stedelijk","grondopp":"4277.2399999999998","gebo":" ","pero":" ","begindatum":"2008-01-01T00:00:00","point_lng":"4.3709620460000451","point_lat":"51.218260998000062"},{"id":"PUB050","thema":"publiek","type":"afvalvoorzieningen","subtype":"recyclagepark","naam":"Vroegmarkt","straat":"Kielsbroek","huisnummer":" ","postcode":"2020","district":"Antwerpen-Kiel","lgst_niv":"stadsdeel","hgst_niv":"stedelijk","grondopp":"2186.6799999999998","gebo":" ","pero":" ","begindatum":"2004-01-01T00:00:00","point_lng":"4.3714638560000481","point_lat":"51.198185045000059"},{"id":"PUB049","thema":"publiek","type":"afvalvoorzieningen","subtype":"recyclagepark","naam":"Hoboken","straat":"Smallandlaan","huisnummer":" ","postcode":"2660","district":"Hoboken","lgst_niv":"stadsdeel","hgst_niv":"stedelijk","grondopp":"5929.0500000000002","gebo":" ","pero":" ","begindatum":"2004-01-01T00:00:00","point_lng":"4.3374094020000484","point_lat":"51.18197570500007"},{"id":"PUB048","thema":"publiek","type":"afvalvoorzieningen","subtype":"recyclagepark","naam":"Wilrijk","straat":"Kernenergiestraat","huisnummer":" ","postcode":"2610","district":"Wilrijk","lgst_niv":"stadsdeel","hgst_niv":"stedelijk","grondopp":"1362.77","gebo":" ","pero":" ","begindatum":"2004-01-01T00:00:00","point_lng":"4.3877330450000613","point_lat":"51.160768447000066"},{"id":"PUB047","thema":"publiek","type":"afvalvoorzieningen","subtype":"recyclagepark","naam":"Berchem","straat":"Arbeidersstraat","huisnummer":" ","postcode":"2600","district":"Berchem","lgst_niv":"stadsdeel","hgst_niv":"stedelijk","grondopp":"3335.02","gebo":" ","pero":" ","begindatum":"2004-01-01T00:00:00","point_lng":"4.437202472000024","point_lat":"51.194229652000047"},{"id":"PUB046","thema":"publiek","type":"afvalvoorzieningen","subtype":"recyclagepark","naam":"Borgerhout","straat":"Noordersingel","huisnummer":" ","postcode":"2140","district":"Borgerhout","lgst_niv":"stadsdeel","hgst_niv":"stedelijk","grondopp":"2969.8800000000001","gebo":" ","pero":" ","begindatum":"2004-01-01T00:00:00","point_lng":"4.4469474920000494","point_lat":"51.223965497000052"},{"id":"PUB045","thema":"publiek","type":"afvalvoorzieningen","subtype":"recyclagepark","naam":"Deurne","straat":"Merksemsesteenweg","huisnummer":" ","postcode":"2100","district":"Deurne","lgst_niv":"stadsdeel","hgst_niv":"stedelijk","grondopp":"2128.8800000000001","gebo":" ","pero":" ","begindatum":"2004-01-01T00:00:00","point_lng":"4.4558768660000396","point_lat":"51.237095624000062"}]}