{"districtshuis":[{"id":"PUB010","thema":"publiek","type":"districtshuis","subtype":"districtshuis","naam":"Districtshuis Wilrijk (tijdelijk)","straat":"DOORNSTRAAT","huisnummer":"3C","postcode":"2610","district":"Wilrijk","lgst_niv":"wijk","hgst_niv":"stadsdeel","grondopp":"224.34999999999999","gebo":" ","pero":" ","begindatum":"2006-01-01T00:00:00","point_lng":"4.3970874850000428","point_lat":"51.168626429000028"},{"id":"PUB009","thema":"publiek","type":"districtshuis","subtype":"districtshuis","naam":"Districtshuis Wilrijk (in verbouwing)","straat":"BIST","huisnummer":"1","postcode":"2610","district":"Wilrijk","lgst_niv":"wijk","hgst_niv":"stadsdeel","grondopp":"973.52999999999997","gebo":"GEBO2000086218","pero":" ","begindatum":"2004-01-01T00:00:00","point_lng":"4.3942868020000674","point_lat":"51.169365249000066"},{"id":"PUB008","thema":"publiek","type":"districtshuis","subtype":"districtshuis","naam":"Districtshuis Merksem","straat":"BURGEMEESTER JOZEF NOLFPLEIN","huisnummer":"1","postcode":"2170","district":"Merksem","lgst_niv":"wijk","hgst_niv":"stadsdeel","grondopp":"1684.73","gebo":"GEBO2000028792","pero":" ","begindatum":"2004-01-01T00:00:00","point_lng":"4.441642133000073","point_lat":"51.242071444000032"},{"id":"PUB007","thema":"publiek","type":"districtshuis","subtype":"districtshuis","naam":"Districtshuis Hoboken","straat":"MARNEFLAAN","huisnummer":"3","postcode":"2660","district":"Hoboken","lgst_niv":"wijk","hgst_niv":"stadsdeel","grondopp":"439.39999999999998","gebo":"GEBO2000009521","pero":" ","begindatum":"2004-01-01T00:00:00","point_lng":"4.3532597970000211","point_lat":"51.170999231000053"},{"id":"PUB006","thema":"publiek","type":"districtshuis","subtype":"districtshuis","naam":"Districtshuis Ekeren","straat":"VELTWIJCKLAAN","huisnummer":"27","postcode":"2180","district":"Ekeren","lgst_niv":"wijk","hgst_niv":"stadsdeel","grondopp":"538.94000000000005","gebo":"GEBO2000016662","pero":" ","begindatum":"2004-01-01T00:00:00","point_lng":"4.424548843000025","point_lat":"51.276393413000051"},{"id":"PUB005","thema":"publiek","type":"districtshuis","subtype":"districtshuis","naam":"Districtshuis Deurne","straat":"MAURICE DEQUEECKERPLEIN","huisnummer":"1","postcode":"2100","district":"Deurne","lgst_niv":"wijk","hgst_niv":"stadsdeel","grondopp":"2995.0999999999999","gebo":"GEBO2000101898","pero":" ","begindatum":"2004-01-01T00:00:00","point_lng":"4.4597840000000701","point_lat":"51.218632521000075"},{"id":"PUB004","thema":"publiek","type":"districtshuis","subtype":"districtshuis","naam":"Districtshuis Borgerhout","straat":"MOORKENSPLEIN","huisnummer":"1","postcode":"2140","district":"Borgerhout","lgst_niv":"wijk","hgst_niv":"stadsdeel","grondopp":"986.97000000000003","gebo":"GEBO2000051729","pero":" ","begindatum":"2004-01-01T00:00:00","point_lng":"4.4335213430000522","point_lat":"51.213596470000027"},{"id":"PUB003","thema":"publiek","type":"districtshuis","subtype":"districtshuis","naam":"Districtshuis Berendrecht-Zandvliet-Lillo","straat":"ANTWERPSEBAAN","huisnummer":"140-142","postcode":"2040","district":"Bezali","lgst_niv":"wijk","hgst_niv":"stadsdeel","grondopp":"964.94000000000005","gebo":"GEBO2000169385","pero":" ","begindatum":"2004-01-01T00:00:00","point_lng":"4.3217508880000537","point_lat":"51.344214835000059"},{"id":"PUB002","thema":"publiek","type":"districtshuis","subtype":"districtshuis","naam":"Districtshuis Berchem","straat":"GROTESTEENWEG","huisnummer":"150","postcode":"2600","district":"Berchem","lgst_niv":"wijk","hgst_niv":"stadsdeel","grondopp":"479.33999999999997","gebo":"GEBO2000169410","pero":" ","begindatum":"2004-01-01T00:00:00","point_lng":"4.419652597000038","point_lat":"51.195244291000051"},{"id":"PUB001","thema":"publiek","type":"districtshuis","subtype":"districtshuis","naam":"Districtshuis Antwerpen","straat":"LANGE GASTHUISSTRAAT","huisnummer":"21","postcode":"2000","district":"Antwerpen","lgst_niv":"wijk","hgst_niv":"stadsdeel","grondopp":"1965.6400000000001","gebo":"GEBO2000039246","pero":" ","begindatum":"2004-01-01T00:00:00","point_lng":"4.4058492220000289","point_lat":"51.215493590000051"}]}