{"glascontainer":[{"glascontainer_nr":"382","straatnaam":"MACCABILAAN","huisnummer":"","postcode":"2660","type":"duo glasbol","ondergrond_verhard":"ja","opmerking":"","begindatum":"","point_lng":"4.3381984030000353","point_lat":"51.175783092000074"},{"glascontainer_nr":"279","straatnaam":"GROTEBAAN","huisnummer":"23","postcode":"2660","type":"duo glasbol","ondergrond_verhard":"ja","opmerking":"","begindatum":"","point_lng":"4.3415041210000709","point_lat":"51.172884624000062"},{"glascontainer_nr":"208","straatnaam":"JOZEF LEEMANSLAAN","huisnummer":"","postcode":"2660","type":"duo glasbol","ondergrond_verhard":"ja","opmerking":"","begindatum":"","point_lng":"4.3440383540000198","point_lat":"51.173974972000053"},{"glascontainer_nr":"041","straatnaam":"SMALLANDLAAN","huisnummer":"7","postcode":"2660","type":"mono glasbol wit","ondergrond_verhard":"ja","opmerking":"containerpark","begindatum":"","point_lng":"4.3370690070000251","point_lat":"51.181813671000043"},{"glascontainer_nr":"033","straatnaam":"SMALLANDLAAN","huisnummer":"7","postcode":"2660","type":"mono glasbol wit","ondergrond_verhard":"ja","opmerking":"containerpark","begindatum":"","point_lng":"4.3371768510000379","point_lat":"51.181860322000034"},{"glascontainer_nr":"116","straatnaam":"SMALLANDLAAN","huisnummer":"7","postcode":"2660","type":"mono glasbol groen","ondergrond_verhard":"ja","opmerking":"containerpark","begindatum":"","point_lng":"4.3372712270000306","point_lat":"51.181902727000079"},{"glascontainer_nr":"196","straatnaam":"SMALLANDLAAN","huisnummer":"7","postcode":"2660","type":"mono glasbol groen","ondergrond_verhard":"ja","opmerking":"containerpark","begindatum":"","point_lng":"4.3373723550000705","point_lat":"51.181940891000067"},{"glascontainer_nr":"244","straatnaam":"RESTRINGENLAAN","huisnummer":"","postcode":"2660","type":"duo glasbol","ondergrond_verhard":"ja","opmerking":"","begindatum":"","point_lng":"4.3419018410000376","point_lat":"51.18514164100003"},{"glascontainer_nr":"098","straatnaam":"SCHROEILAAN","huisnummer":"","postcode":"2660","type":"mono glasbol wit","ondergrond_verhard":"ja","opmerking":"","begindatum":"","point_lng":"4.3478369860000612","point_lat":"51.182850028000075"},{"glascontainer_nr":"114","straatnaam":"SCHROEILAAN","huisnummer":"","postcode":"2660","type":"mono glasbol groen","ondergrond_verhard":"ja","opmerking":"","begindatum":"","point_lng":"4.3479178900000761","point_lat":"51.182883937000042"},{"glascontainer_nr":"253","straatnaam":"BERKENRODELEI","huisnummer":"126","postcode":"2660","type":"duo glasbol","ondergrond_verhard":"ja","opmerking":"","begindatum":"","point_lng":"4.3488084230000368","point_lat":"51.181744066000078"},{"glascontainer_nr":"201","straatnaam":"COMMANDANT WEYNSSTRAAT","huisnummer":"116","postcode":"2660","type":"duo glasbol","ondergrond_verhard":"ja","opmerking":"","begindatum":"","point_lng":"4.3526513440000372","point_lat":"51.183384712000077"},{"glascontainer_nr":"212","straatnaam":"VAN DE PERRELEI","huisnummer":"9","postcode":"2660","type":"duo glasbol","ondergrond_verhard":"ja","opmerking":"<Null>","begindatum":"","point_lng":"4.3555721750000203","point_lat":"51.179274190000058"},{"glascontainer_nr":"194","straatnaam":"STEYNSTRAAT","huisnummer":"330","postcode":"2660","type":"mono glasbol groen","ondergrond_verhard":"ja","opmerking":"","begindatum":"","point_lng":"4.3663129160000267","point_lat":"51.183978951000029"},{"glascontainer_nr":"013","straatnaam":"STEYNSTRAAT","huisnummer":"330","postcode":"2660","type":"mono glasbol wit","ondergrond_verhard":"ja","opmerking":"","begindatum":"","point_lng":"4.3663870850000421","point_lat":"51.184021332000043"},{"glascontainer_nr":"448","straatnaam":"WEERSTANDLAAN","huisnummer":"6A","postcode":"2660","type":"duo glasbol","ondergrond_verhard":"ja","opmerking":"<Null>","begindatum":"","point_lng":"4.3690299470000582","point_lat":"51.185691718000044"},{"glascontainer_nr":"010","straatnaam":"ZEELANDSTRAAT","huisnummer":"","postcode":"2660","type":"mono glasbol wit","ondergrond_verhard":"ja","opmerking":"","begindatum":"","point_lng":"4.3711002840000219","point_lat":"51.18524059300006"},{"glascontainer_nr":"198","straatnaam":"ZEELANDSTRAAT","huisnummer":"","postcode":"2660","type":"mono glasbol groen","ondergrond_verhard":"ja","opmerking":"","begindatum":"","point_lng":"4.3710708380000369","point_lat":"51.185261258000025"},{"glascontainer_nr":"630","straatnaam":"VOETBALSTRAAT","huisnummer":"32","postcode":"2660","type":"ondergrondse duo","ondergrond_verhard":"ja","opmerking":"","begindatum":"","point_lng":"4.3733034030000226","point_lat":"51.183848182000077"},{"glascontainer_nr":"183","straatnaam":"HUISBLOKSTRAAT","huisnummer":"","postcode":"2610","type":"mono glasbol wit","ondergrond_verhard":"ja","opmerking":"","begindatum":"","point_lng":"4.3852461070000572","point_lat":"51.176420101000076"},{"glascontainer_nr":"088","straatnaam":"HUISBLOKSTRAAT","huisnummer":"","postcode":"2610","type":"mono glasbol groen","ondergrond_verhard":"ja","opmerking":"","begindatum":"","point_lng":"4.3852575500000626","point_lat":"51.176390842000046"},{"glascontainer_nr":"032","straatnaam":"GEBROEDERS DE WACHTERSTRAAT","huisnummer":"","postcode":"2610","type":"mono glasbol wit","ondergrond_verhard":"ja","opmerking":"","begindatum":"","point_lng":"4.3806672660000459","point_lat":"51.176705288000051"},{"glascontainer_nr":"149","straatnaam":"GEBROEDERS DE WACHTERSTRAAT","huisnummer":"","postcode":"2610","type":"mono glasbol groen","ondergrond_verhard":"ja","opmerking":"","begindatum":"","point_lng":"4.380725324000025","point_lat":"51.176707717000056"},{"glascontainer_nr":"080","straatnaam":"PASTOOR BAUWENSLAAN","huisnummer":"67","postcode":"2610","type":"mono glasbol wit","ondergrond_verhard":"ja","opmerking":"<Null>","begindatum":"","point_lng":"4.3782719600000632","point_lat":"51.179058166000061"},{"glascontainer_nr":"192","straatnaam":"PASTOOR BAUWENSLAAN","huisnummer":"67","postcode":"2610","type":"mono glasbol groen","ondergrond_verhard":"ja","opmerking":"<Null>","begindatum":"","point_lng":"4.3783106660000612","point_lat":"51.179036267000072"},{"glascontainer_nr":"441","straatnaam":"RIDDERVELD","huisnummer":"11","postcode":"2610","type":"duo glasbol","ondergrond_verhard":"ja","opmerking":"","begindatum":"","point_lng":"4.3747218030000568","point_lat":"51.177158322000082"},{"glascontainer_nr":"325","straatnaam":"SCHOONSELHOFLEI","huisnummer":"","postcode":"2660","type":"duo glasbol","ondergrond_verhard":"ja","opmerking":"","begindatum":"","point_lng":"4.3676588150000271","point_lat":"51.176158469000029"},{"glascontainer_nr":"235","straatnaam":"ALFRED NOBELLAAN","huisnummer":"16","postcode":"2660","type":"duo glasbol","ondergrond_verhard":"ja","opmerking":"<Null>","begindatum":"","point_lng":"4.3608060830000568","point_lat":"51.177176216000078"},{"glascontainer_nr":"014","straatnaam":"PAUL VEKEMANSLAAN","huisnummer":"","postcode":"2660","type":"mono glasbol wit","ondergrond_verhard":"ja","opmerking":"","begindatum":"","point_lng":"4.3632608890000597","point_lat":"51.176051250000057"},{"glascontainer_nr":"104","straatnaam":"PAUL VEKEMANSLAAN","huisnummer":"","postcode":"2660","type":"mono glasbol groen","ondergrond_verhard":"ja","opmerking":"","begindatum":"","point_lng":"4.3632439780000709","point_lat":"51.176001147000079"},{"glascontainer_nr":"348","straatnaam":"SALESIANENLAAN","huisnummer":"","postcode":"2660","type":"duo glasbol","ondergrond_verhard":"ja","opmerking":"","begindatum":"","point_lng":"4.3673412150000672","point_lat":"51.173118539000029"},{"glascontainer_nr":"021","straatnaam":"OUDESTRAAT","huisnummer":"130","postcode":"2660","type":"mono glasbol wit","ondergrond_verhard":"ja","opmerking":"<Null>","begindatum":"","point_lng":"4.3543853450000256","point_lat":"51.17351431700007"},{"glascontainer_nr":"109","straatnaam":"OUDESTRAAT","huisnummer":"130","postcode":"2660","type":"mono glasbol groen","ondergrond_verhard":"ja","opmerking":"<Null>","begindatum":"","point_lng":"4.3544592100000727","point_lat":"51.173521471000072"},{"glascontainer_nr":"xxx","straatnaam":"HERENTALSEBAAN","huisnummer":"141","postcode":"2100","type":"duo glasbol","ondergrond_verhard":"ja","opmerking":"","begindatum":"","point_lng":"4.4585007480000627","point_lat":"51.209608101000072"},{"glascontainer_nr":"260","straatnaam":"HERENTALSEBAAN","huisnummer":"141","postcode":"2100","type":"duo glasbol","ondergrond_verhard":"ja","opmerking":"","begindatum":"","point_lng":"4.4586335120000626","point_lat":"51.209628842000029"},{"glascontainer_nr":"269","straatnaam":"VAN AMSTELSTRAAT","huisnummer":"44","postcode":"2660","type":"duo glasbol","ondergrond_verhard":"ja","opmerking":"<Null>","begindatum":"","point_lng":"4.3516238210000324","point_lat":"51.17314248100007"},{"glascontainer_nr":"190","straatnaam":"MORETUSSTRAAT","huisnummer":"","postcode":"2660","type":"mono glasbol groen","ondergrond_verhard":"ja","opmerking":"parking","begindatum":"","point_lng":"4.3495166230000564","point_lat":"51.170666719000053"},{"glascontainer_nr":"026","straatnaam":"MORETUSSTRAAT","huisnummer":"","postcode":"2660","type":"mono glasbol wit","ondergrond_verhard":"ja","opmerking":"parking","begindatum":"","point_lng":"4.3495166400000471","point_lat":"51.170623853000052"},{"glascontainer_nr":"215","straatnaam":"NACHTEGAALLAAN","huisnummer":"6","postcode":"2660","type":"duo glasbol","ondergrond_verhard":"ja","opmerking":"","begindatum":"","point_lng":"4.35731210900002","point_lat":"51.172035762000064"},{"glascontainer_nr":"243","straatnaam":"OUDSTRIJDERSLAAN","huisnummer":"49","postcode":"2660","type":"duo glasbol","ondergrond_verhard":"ja","opmerking":"","begindatum":"","point_lng":"4.3602671240000745","point_lat":"51.170299936000049"},{"glascontainer_nr":"652","straatnaam":"KAREL MEYVISSTRAAT","huisnummer":"8","postcode":"2660","type":"ondergrondse duo","ondergrond_verhard":"ja","opmerking":" ","begindatum":"","point_lng":"4.362105083000074","point_lat":"51.172843852000028"},{"glascontainer_nr":"430","straatnaam":"VERENGDE NATIESLAAN","huisnummer":"59","postcode":"2660","type":"duo glasbol","ondergrond_verhard":"ja","opmerking":"<Null>","begindatum":"","point_lng":"4.353503981000074","point_lat":"51.164060183000061"},{"glascontainer_nr":"227","straatnaam":"KLAVERBLADDREEF","huisnummer":"","postcode":"2660","type":"duo glasbol","ondergrond_verhard":"ja","opmerking":"","begindatum":"","point_lng":"4.3554595730000756","point_lat":"51.161609243000044"},{"glascontainer_nr":"011","straatnaam":"SINT-BERNARDSESTEENWEG","huisnummer":"1400","postcode":"2660","type":"mono glasbol wit","ondergrond_verhard":"ja","opmerking":"","begindatum":"","point_lng":"4.3501591480000457","point_lat":"51.159743108000043"},{"glascontainer_nr":"111","straatnaam":"SINT-BERNARDSESTEENWEG","huisnummer":"1400","postcode":"2660","type":"mono glasbol groen","ondergrond_verhard":"ja","opmerking":"","begindatum":"","point_lng":"4.3502511120000236","point_lat":"51.159800963000066"},{"glascontainer_nr":"241","straatnaam":"LAGEWEG","huisnummer":"152","postcode":"2660","type":"duo glasbol","ondergrond_verhard":"ja","opmerking":"<Null>","begindatum":"","point_lng":"4.3595093530000213","point_lat":"51.184058533000041"},{"glascontainer_nr":"610","straatnaam":"MICHEL WILLEMSLAAN","huisnummer":"80","postcode":"2610","type":"ondergrondse duo","ondergrond_verhard":"ja","opmerking":"<Null>","begindatum":"","point_lng":"4.3752740580000591","point_lat":"51.180714721000072"},{"glascontainer_nr":"036","straatnaam":"LETTERKUNDESTRAAT","huisnummer":"29","postcode":"2610","type":"mono glasbol wit","ondergrond_verhard":"ja","opmerking":"<Null>","begindatum":"","point_lng":"4.3822544600000697","point_lat":"51.180796622000059"},{"glascontainer_nr":"145","straatnaam":"LETTERKUNDESTRAAT","huisnummer":"29","postcode":"2610","type":"mono glasbol groen","ondergrond_verhard":"ja","opmerking":"<Null>","begindatum":"","point_lng":"4.382309193000026","point_lat":"51.180803492000052"},{"glascontainer_nr":"458","straatnaam":"KAREL MESTDAGHPLEIN","huisnummer":"","postcode":"2610","type":"duo glasbol","ondergrond_verhard":"ja","opmerking":"","begindatum":"","point_lng":"4.3857205720000252","point_lat":"51.179864997000038"},{"glascontainer_nr":"266","straatnaam":"OVERWINNINGSTRAAT","huisnummer":"","postcode":"2610","type":"duo glasbol","ondergrond_verhard":"ja","opmerking":"","begindatum":"","point_lng":"4.3916658940000275","point_lat":"51.17495552500003"},{"glascontainer_nr":"xxx","straatnaam":"MASTPLEIN","huisnummer":"","postcode":"2610","type":"mono glasbol groen","ondergrond_verhard":"ja","opmerking":"","begindatum":"","point_lng":"4.3928658740000515","point_lat":"51.17159891700004"},{"glascontainer_nr":"xxx","straatnaam":"MASTPLEIN","huisnummer":"","postcode":"2610","type":"mono glasbol wit","ondergrond_verhard":"ja","opmerking":"","begindatum":"","point_lng":"4.3928749350000658","point_lat":"51.171565577000081"},{"glascontainer_nr":"001","straatnaam":"BIST","huisnummer":"151","postcode":"2610","type":"mono glasbol wit","ondergrond_verhard":"ja","opmerking":"","begindatum":"","point_lng":"4.3947320390000755","point_lat":"51.170489276000069"},{"glascontainer_nr":"124","straatnaam":"BIST","huisnummer":"151","postcode":"2610","type":"mono glasbol groen","ondergrond_verhard":"ja","opmerking":"","begindatum":"","point_lng":"4.3947497640000392","point_lat":"51.170455816000072"},{"glascontainer_nr":"234","straatnaam":"VALKENVELD","huisnummer":"","postcode":"2610","type":"duo glasbol","ondergrond_verhard":"ja","opmerking":"","begindatum":"","point_lng":"4.3872030480000603","point_lat":"51.168918744000052"},{"glascontainer_nr":"444","straatnaam":"VALKSTRAAT","huisnummer":"86","postcode":"2610","type":"duo glasbol","ondergrond_verhard":"ja","opmerking":"","begindatum":"","point_lng":"4.3842372100000375","point_lat":"51.169415335000053"},{"glascontainer_nr":"333","straatnaam":"BERKENVELDPLEIN","huisnummer":"29","postcode":"2610","type":"duo glasbol","ondergrond_verhard":"ja","opmerking":"<Null>","begindatum":"","point_lng":"4.3827603620000559","point_lat":"51.167971718000047"},{"glascontainer_nr":"435","straatnaam":"KRIJGSLAAN","huisnummer":"27","postcode":"2610","type":"duo glasbol","ondergrond_verhard":"ja","opmerking":"<Null>","begindatum":"","point_lng":"4.3988940890000663","point_lat":"51.163338704000068"},{"glascontainer_nr":"211","straatnaam":"KRIJGSLAAN","huisnummer":"245","postcode":"2610","type":"duo glasbol","ondergrond_verhard":"ja","opmerking":"<Null>","begindatum":"","point_lng":"4.3890419660000362","point_lat":"51.162805949000074"},{"glascontainer_nr":"489","straatnaam":"BOEKSVELDPLEIN","huisnummer":"8","postcode":"2610","type":"duo glasbol","ondergrond_verhard":"ja","opmerking":"<Null>","begindatum":"","point_lng":"4.3902194950000535","point_lat":"51.163823345000026"},{"glascontainer_nr":"xxx","straatnaam":"KERNENERGIESTRAAT","huisnummer":"43","postcode":"2610","type":"mono glasbol wit","ondergrond_verhard":"ja","opmerking":"containerpark","begindatum":"","point_lng":"4.3874436650000348","point_lat":"51.160714357000074"},{"glascontainer_nr":"xxx","straatnaam":"KERNENERGIESTRAAT","huisnummer":"43","postcode":"2610","type":"mono glasbol groen","ondergrond_verhard":"ja","opmerking":"containerpark","begindatum":"","point_lng":"4.3874856950000662","point_lat":"51.160720013000059"},{"glascontainer_nr":"xxx","straatnaam":"KERNENERGIESTRAAT","huisnummer":"43","postcode":"2610","type":"mono glasbol wit","ondergrond_verhard":"ja","opmerking":"containerpark","begindatum":"","point_lng":"4.3875277390000633","point_lat":"51.16072755600004"},{"glascontainer_nr":"xxx","straatnaam":"KERNENERGIESTRAAT","huisnummer":"43","postcode":"2610","type":"mono glasbol groen","ondergrond_verhard":"ja","opmerking":"containerpark","begindatum":"","point_lng":"4.3875727850000317","point_lat":"51.160735099000078"},{"glascontainer_nr":"375","straatnaam":"EDENPLEIN","huisnummer":"4","postcode":"2610","type":"duo glasbol","ondergrond_verhard":"ja","opmerking":"","begindatum":"","point_lng":"4.3898810860000594","point_lat":"51.153190321000068"},{"glascontainer_nr":"447","straatnaam":"SCHUURVELDLAAN","huisnummer":"62","postcode":"2610","type":"duo glasbol","ondergrond_verhard":"ja","opmerking":"","begindatum":"","point_lng":"4.3937266650000311","point_lat":"51.153163093000046"},{"glascontainer_nr":"251","straatnaam":"MOERENLEI","huisnummer":"153","postcode":"2610","type":"duo glasbol","ondergrond_verhard":"ja","opmerking":"","begindatum":"","point_lng":"4.363349597000024","point_lat":"51.159300808000069"},{"glascontainer_nr":"334","straatnaam":"TERBEKEHOFDREEF","huisnummer":"1","postcode":"2610","type":"duo glasbol","ondergrond_verhard":"ja","opmerking":"","begindatum":"","point_lng":"4.3806232770000406","point_lat":"51.153245809000055"},{"glascontainer_nr":"412","straatnaam":"KLAPROOSSTRAAT","huisnummer":"","postcode":"2610","type":"duo glasbol","ondergrond_verhard":"ja","opmerking":"","begindatum":"","point_lng":"4.4088924740000266","point_lat":"51.17072581900004"},{"glascontainer_nr":"428","straatnaam":"DOKTER DONNYPLEIN","huisnummer":"30","postcode":"2610","type":"duo glasbol","ondergrond_verhard":"ja","opmerking":"","begindatum":"","point_lng":"4.4056218090000243","point_lat":"51.168079947000081"},{"glascontainer_nr":"408","straatnaam":"STEYTELINCKLEI","huisnummer":"","postcode":"2610","type":"duo glasbol","ondergrond_verhard":"ja","opmerking":"","begindatum":"","point_lng":"4.3991431640000656","point_lat":"51.169958281000049"},{"glascontainer_nr":"471","straatnaam":"GOUDENREGENLAAN","huisnummer":"2","postcode":"2610","type":"duo glasbol","ondergrond_verhard":"ja","opmerking":"","begindatum":"","point_lng":"4.4001454810000382","point_lat":"51.175116393000053"},{"glascontainer_nr":"364","straatnaam":"CEDERLAAN","huisnummer":"68","postcode":"2610","type":"duo glasbol","ondergrond_verhard":"ja","opmerking":"","begindatum":"","point_lng":"4.4020179130000656","point_lat":"51.174673506000033"},{"glascontainer_nr":"459","straatnaam":"GROENENGORGERLAAN","huisnummer":"129","postcode":"2610","type":"duo glasbol","ondergrond_verhard":"ja","opmerking":"","begindatum":"","point_lng":"4.4091685520000397","point_lat":"51.17487096900004"},{"glascontainer_nr":"416","straatnaam":"JOS OP DE BEECKLAAN","huisnummer":"19","postcode":"2610","type":"duo glasbol","ondergrond_verhard":"ja","opmerking":"","begindatum":"","point_lng":"4.3954963730000713","point_lat":"51.163580786000068"},{"glascontainer_nr":"456","straatnaam":"JOS OP DE BEECKLAAN","huisnummer":"44","postcode":"2610","type":"duo glasbol","ondergrond_verhard":"ja","opmerking":"","begindatum":"","point_lng":"4.3919399600000588","point_lat":"51.17622424800004"},{"glascontainer_nr":"446","straatnaam":"HEISTRAAT","huisnummer":"321","postcode":"2610","type":"duo glasbol","ondergrond_verhard":"ja","opmerking":"","begindatum":"","point_lng":"4.391374158000076","point_lat":"51.179556257000058"},{"glascontainer_nr":"268","straatnaam":"KRUISHOFSTRAAT","huisnummer":"227","postcode":"2610","type":"duo glasbol","ondergrond_verhard":"ja","opmerking":"<Null>","begindatum":"","point_lng":"4.3939530320000699","point_lat":"51.183387025000059"},{"glascontainer_nr":"267","straatnaam":"EGLANTIERLAAN","huisnummer":"1","postcode":"2610","type":"duo glasbol","ondergrond_verhard":"ja","opmerking":"<Null>","begindatum":"","point_lng":"4.4037748110000621","point_lat":"51.186266819000082"},{"glascontainer_nr":"340","straatnaam":"GROENENGORGERLAAN","huisnummer":"173","postcode":"2610","type":"duo glasbol","ondergrond_verhard":"ja","opmerking":"staat op de campus","begindatum":"","point_lng":"4.4154832910000437","point_lat":"51.178892531000031"},{"glascontainer_nr":"415","straatnaam":"OUDESTRAAT","huisnummer":"27","postcode":"2610","type":"duo glasbol","ondergrond_verhard":"ja","opmerking":"<Null>","begindatum":"","point_lng":"4.3927980270000262","point_lat":"51.167826544000036"},{"glascontainer_nr":"022","straatnaam":"RUCAPLEIN","huisnummer":"","postcode":"2610","type":"mono glasbol wit","ondergrond_verhard":"ja","opmerking":"","begindatum":"","point_lng":"4.4222993230000611","point_lat":"51.177963645000034"},{"glascontainer_nr":"108","straatnaam":"RUCAPLEIN","huisnummer":"","postcode":"2610","type":"mono glasbol groen","ondergrond_verhard":"ja","opmerking":"","begindatum":"","point_lng":"4.422428210000021","point_lat":"51.177963585000043"},{"glascontainer_nr":"432","straatnaam":"RINGLAAN","huisnummer":"82","postcode":"2610","type":"duo glasbol","ondergrond_verhard":"ja","opmerking":"","begindatum":"","point_lng":"4.4275623960000416","point_lat":"51.177970091000077"},{"glascontainer_nr":"464","straatnaam":"VIERBUNDERPLEIN","huisnummer":"3","postcode":"2610","type":"duo glasbol","ondergrond_verhard":"ja","opmerking":"","begindatum":"","point_lng":"4.4324583310000207","point_lat":"51.176581213000077"},{"glascontainer_nr":"245","straatnaam":"GEMZENSTRAAT","huisnummer":"","postcode":"2610","type":"duo glasbol","ondergrond_verhard":"ja","opmerking":"","begindatum":"","point_lng":"4.4217012780000573","point_lat":"51.174763771000073"},{"glascontainer_nr":"378","straatnaam":"BEECKMANSLAAN","huisnummer":"","postcode":"2610","type":"duo glasbol","ondergrond_verhard":"ja","opmerking":"","begindatum":"","point_lng":"4.4214596640000536","point_lat":"51.170163937000041"},{"glascontainer_nr":"384","straatnaam":"PARKLAAN","huisnummer":"44","postcode":"2610","type":"duo glasbol","ondergrond_verhard":"ja","opmerking":"","begindatum":"","point_lng":"4.4274323620000473","point_lat":"51.171511338000073"},{"glascontainer_nr":"356","straatnaam":"HOF VAN TICHELEN","huisnummer":"30","postcode":"2020","type":"duo glasbol","ondergrond_verhard":"ja","opmerking":"","begindatum":"","point_lng":"4.3853307340000356","point_lat":"51.182516441000075"},{"glascontainer_nr":"466","straatnaam":"JULIUS DE GEYTERSTRAAT","huisnummer":"93","postcode":"2020","type":"duo glasbol","ondergrond_verhard":"ja","opmerking":"","begindatum":"","point_lng":"4.3783489070000314","point_lat":"51.184506685000031"},{"glascontainer_nr":"485","straatnaam":"DE BOSSCHAERTSTRAAT","huisnummer":"249","postcode":"2020","type":"duo glasbol","ondergrond_verhard":"ja","opmerking":"","begindatum":"","point_lng":"4.3861983720000239","point_lat":"51.185279856000079"},{"glascontainer_nr":"484","straatnaam":"JAN LIGTHARTPLEIN","huisnummer":"","postcode":"2020","type":"duo glasbol","ondergrond_verhard":"ja","opmerking":"","begindatum":"","point_lng":"4.3880613140000264","point_lat":"51.187291446000074"},{"glascontainer_nr":"344","straatnaam":"ALFRED COOLSTRAAT","huisnummer":"31","postcode":"2020","type":"duo glasbol","ondergrond_verhard":"ja","opmerking":"","begindatum":"","point_lng":"4.3917646600000353","point_lat":"51.188393462000079"},{"glascontainer_nr":"481","straatnaam":"JAN DE VOSLEI","huisnummer":"23","postcode":"2020","type":"duo glasbol","ondergrond_verhard":"ja","opmerking":"","begindatum":"","point_lng":"4.3890570250000565","point_lat":"51.188236410000059"},{"glascontainer_nr":"478","straatnaam":"VLAAMSEKUNSTLAAN","huisnummer":"1","postcode":"2020","type":"duo glasbol","ondergrond_verhard":"ja","opmerking":"","begindatum":"","point_lng":"4.394602419000023","point_lat":"51.189144662000047"},{"glascontainer_nr":"082","straatnaam":"KIELPARK","huisnummer":"","postcode":"2020","type":"mono glasbol wit","ondergrond_verhard":"ja","opmerking":"","begindatum":"","point_lng":"4.3862999560000731","point_lat":"51.190796242000033"},{"glascontainer_nr":"180","straatnaam":"KIELPARK","huisnummer":"","postcode":"2020","type":"mono glasbol groen","ondergrond_verhard":"ja","opmerking":"","begindatum":"","point_lng":"4.3863787720000573","point_lat":"51.190796230000046"},{"glascontainer_nr":"505","straatnaam":"JAN DENUCESTRAAT","huisnummer":"","postcode":"2020","type":"duo glasbol","ondergrond_verhard":"ja","opmerking":"","begindatum":"","point_lng":"4.3896694840000237","point_lat":"51.195648770000048"},{"glascontainer_nr":"501","straatnaam":"VOLHARDINGSTRAAT","huisnummer":"89","postcode":"2020","type":"duo glasbol","ondergrond_verhard":"ja","opmerking":"","begindatum":"","point_lng":"4.3905067910000639","point_lat":"51.193627234000076"},{"glascontainer_nr":"094","straatnaam":"CAMILLE HUYSMANSLAAN","huisnummer":"39","postcode":"2020","type":"mono glasbol wit","ondergrond_verhard":"ja","opmerking":"","begindatum":"","point_lng":"4.3956139450000364","point_lat":"51.191456179000056"},{"glascontainer_nr":"181","straatnaam":"CAMILLE HUYSMANSLAAN","huisnummer":"39","postcode":"2020","type":"mono glasbol groen","ondergrond_verhard":"ja","opmerking":"","begindatum":"","point_lng":"4.3955207850000306","point_lat":"51.191438197000082"},{"glascontainer_nr":"636","straatnaam":"ZAANSTRAAT","huisnummer":"2","postcode":"2020","type":"ondergrondse duo","ondergrond_verhard":"ja","opmerking":"","begindatum":"","point_lng":"4.3790856620000227","point_lat":"51.191382431000079"},{"glascontainer_nr":"237","straatnaam":"PIETER ROTTIERSTRAAT","huisnummer":"","postcode":"2020","type":"duo glasbol","ondergrond_verhard":"ja","opmerking":"","begindatum":"","point_lng":"4.3791577410000286","point_lat":"51.193151693000061"},{"glascontainer_nr":"465","straatnaam":"VERT LAROCKSTRAAT","huisnummer":"8","postcode":"2020","type":"duo glasbol","ondergrond_verhard":"ja","opmerking":"","begindatum":"","point_lng":"4.3753890690000503","point_lat":"51.192706311000052"},{"glascontainer_nr":"473","straatnaam":"ALFONS DE COCKSTRAAT","huisnummer":"60","postcode":"2020","type":"duo glasbol","ondergrond_verhard":"ja","opmerking":"","begindatum":"","point_lng":"4.3738196170000379","point_lat":"51.18973511300004"},{"glascontainer_nr":"625","straatnaam":"ALFONS DE COCKSTRAAT","huisnummer":"1","postcode":"2020","type":"ondergrondse wit","ondergrond_verhard":"ja","opmerking":"","begindatum":"","point_lng":"4.3764630150000698","point_lat":"51.188897581000049"},{"glascontainer_nr":"626","straatnaam":"ALFONS DE COCKSTRAAT","huisnummer":"1","postcode":"2020","type":"ondergrondse wit","ondergrond_verhard":"ja","opmerking":"","begindatum":"","point_lng":"4.3765489740000589","point_lat":"51.188870564000069"},{"glascontainer_nr":"377","straatnaam":"JAN DAVIDLEI","huisnummer":"72","postcode":"2020","type":"duo glasbol","ondergrond_verhard":"ja","opmerking":"","begindatum":"","point_lng":"4.3743208600000685","point_lat":"51.188055851000058"},{"glascontainer_nr":"008","straatnaam":"KIELSBROEK","huisnummer":"","postcode":"2020","type":"mono glasbol wit","ondergrond_verhard":"ja","opmerking":"containerpark","begindatum":"","point_lng":"4.371534979000046","point_lat":"51.198090834000027"},{"glascontainer_nr":"197","straatnaam":"KIELSBROEK","huisnummer":"","postcode":"2020","type":"mono glasbol groen","ondergrond_verhard":"ja","opmerking":"containerpark","begindatum":"","point_lng":"4.371406008000065","point_lat":"51.198095342000045"},{"glascontainer_nr":"193","straatnaam":"KIELSBROEK","huisnummer":"","postcode":"2020","type":"mono glasbol groen","ondergrond_verhard":"ja","opmerking":"containerpark","begindatum":"","point_lng":"4.3715063180000584","point_lat":"51.198027808000063"},{"glascontainer_nr":"005","straatnaam":"KIELSBROEK","huisnummer":"","postcode":"2020","type":"mono glasbol wit","ondergrond_verhard":"ja","opmerking":"containerpark","begindatum":"","point_lng":"4.3713916670000685","point_lat":"51.198027812000078"},{"glascontainer_nr":"381","straatnaam":"KIELSBROEK","huisnummer":"22","postcode":"2020","type":"duo glasbol","ondergrond_verhard":"ja","opmerking":"","begindatum":"","point_lng":"4.3763716380000233","point_lat":"51.198090569000044"},{"glascontainer_nr":"030","straatnaam":"KRONENBURGSTRAAT","huisnummer":"55","postcode":"2000","type":"mono glasbol wit","ondergrond_verhard":"ja","opmerking":"","begindatum":"","point_lng":"4.4000705120000703","point_lat":"51.211790161000067"},{"glascontainer_nr":"144","straatnaam":"KRONENBURGSTRAAT","huisnummer":"55","postcode":"2000","type":"mono glasbol groen","ondergrond_verhard":"ja","opmerking":"","begindatum":"","point_lng":"4.4001502650000361","point_lat":"51.211790139000072"},{"glascontainer_nr":"406","straatnaam":"NATIONALSTRAAT","huisnummer":"111","postcode":"2000","type":"duo glasbol","ondergrond_verhard":"ja","opmerking":"<Null>","begindatum":"","point_lng":"4.398018511000032","point_lat":"51.214078129000029"},{"glascontainer_nr":"418","straatnaam":"KLOOSTERSTRAAT","huisnummer":"143","postcode":"2000","type":"duo glasbol","ondergrond_verhard":"ja","opmerking":"","begindatum":"","point_lng":"4.3942969340000673","point_lat":"51.214367048000042"},{"glascontainer_nr":"209","straatnaam":"SINT-ANDRIESTRAAT","huisnummer":"24","postcode":"2000","type":"duo glasbol","ondergrond_verhard":"ja","opmerking":"","begindatum":"","point_lng":"4.3960850780000555","point_lat":"51.214959352000051"},{"glascontainer_nr":"623","straatnaam":"MARIA-HENRIETTALEI","huisnummer":"2","postcode":"2018","type":"ondergrondse duo","ondergrond_verhard":"ja","opmerking":"","begindatum":"","point_lng":"4.4100767500000302","point_lat":"51.211168017000034"},{"glascontainer_nr":"048","straatnaam":"BRIALMONTLEI","huisnummer":"7","postcode":"2018","type":"mono glasbol wit","ondergrond_verhard":"ja","opmerking":"","begindatum":"","point_lng":"4.4185759180000446","point_lat":"51.210032537000075"},{"glascontainer_nr":"134","straatnaam":"BRIALMONTLEI","huisnummer":"7","postcode":"2018","type":"mono glasbol groen","ondergrond_verhard":"ja","opmerking":"","begindatum":"","point_lng":"4.4185220530000606","point_lat":"51.209964985000056"},{"glascontainer_nr":"250","straatnaam":"HEMELSTRAAT","huisnummer":"37","postcode":"2018","type":"duo glasbol","ondergrond_verhard":"ja","opmerking":"","begindatum":"","point_lng":"4.4104344030000675","point_lat":"51.20931493900008"},{"glascontainer_nr":"256","straatnaam":"JACOB JORDAENSSTRAAT","huisnummer":"91","postcode":"2018","type":"duo glasbol","ondergrond_verhard":"ja","opmerking":"","begindatum":"","point_lng":"4.4131944660000499","point_lat":"51.207956694000075"},{"glascontainer_nr":"624","straatnaam":"ISABELLALEI","huisnummer":"1","postcode":"2018","type":"ondergrondse duo","ondergrond_verhard":"ja","opmerking":"","begindatum":"","point_lng":"4.4150669280000443","point_lat":"51.206694481000056"},{"glascontainer_nr":"204","straatnaam":"SINT-VINCENTIUSSTRAAT","huisnummer":"45","postcode":"2018","type":"duo glasbol","ondergrond_verhard":"ja","opmerking":"","begindatum":"","point_lng":"4.4136045970000737","point_lat":"51.205653218000066"},{"glascontainer_nr":"255","straatnaam":"BELGIELEI","huisnummer":"132","postcode":"2018","type":"duo glasbol","ondergrond_verhard":"ja","opmerking":"","begindatum":"","point_lng":"4.4164635700000758","point_lat":"51.204886179000027"},{"glascontainer_nr":"213","straatnaam":"MECHELSESTEENWEG","huisnummer":"216","postcode":"2018","type":"duo glasbol","ondergrond_verhard":"ja","opmerking":"","begindatum":"","point_lng":"4.4119964670000513","point_lat":"51.202072150000049"},{"glascontainer_nr":"273","straatnaam":"BOOMGAARDSTRAAT","huisnummer":"27","postcode":"2018","type":"duo glasbol","ondergrond_verhard":"ja","opmerking":"","begindatum":"","point_lng":"4.4183316940000736","point_lat":"51.199839491000034"},{"glascontainer_nr":"257","straatnaam":"PRINS ALBERTLEI","huisnummer":"15","postcode":"2018","type":"duo glasbol","ondergrond_verhard":"ja","opmerking":"","begindatum":"","point_lng":"4.4129163950000247","point_lat":"51.198602744000027"},{"glascontainer_nr":"392","straatnaam":"VICTOR JACOBSLEI","huisnummer":"","postcode":"2600","type":"duo glasbol","ondergrond_verhard":"ja","opmerking":"","begindatum":"","point_lng":"4.4251149340000211","point_lat":"51.197972320000076"},{"glascontainer_nr":"476","straatnaam":"WEIDESTRAAT","huisnummer":"1","postcode":"2600","type":"duo glasbol","ondergrond_verhard":"ja","opmerking":"","begindatum":"","point_lng":"4.4285150920000547","point_lat":"51.200302089000047"},{"glascontainer_nr":"629","straatnaam":"DE VILLEGASSTRAAT","huisnummer":"41","postcode":"2600","type":"ondergrondse duo","ondergrond_verhard":"ja","opmerking":"","begindatum":"","point_lng":"4.4241531680000321","point_lat":"51.195770831000061"},{"glascontainer_nr":"627","straatnaam":"VREDESTRAAT","huisnummer":"150","postcode":"2600","type":"ondergrondse duo","ondergrond_verhard":"ja","opmerking":"","begindatum":"","point_lng":"4.4276502990000495","point_lat":"51.196991159000049"},{"glascontainer_nr":"369","straatnaam":"HELENALEI","huisnummer":"1","postcode":"2018","type":"duo glasbol","ondergrond_verhard":"ja","opmerking":"","begindatum":"","point_lng":"4.4215339710000308","point_lat":"51.20175843800007"},{"glascontainer_nr":"305","straatnaam":"UITBREIDINGSTRAAT","huisnummer":"184","postcode":"2600","type":"duo glasbol","ondergrond_verhard":"ja","opmerking":"naast","begindatum":"","point_lng":"4.4212543190000702","point_lat":"51.192451792000043"},{"glascontainer_nr":"317","straatnaam":"DE WITTESTRAAT","huisnummer":"52","postcode":"2600","type":"duo glasbol","ondergrond_verhard":"ja","opmerking":"","begindatum":"","point_lng":"4.415681090000021","point_lat":"51.193743830000074"},{"glascontainer_nr":"290","straatnaam":"FRANS VAN HOMBEECKPLEIN","huisnummer":"12","postcode":"2600","type":"duo glasbol","ondergrond_verhard":"ja","opmerking":"","begindatum":"","point_lng":"4.4173223230000644","point_lat":"51.194756845000029"},{"glascontainer_nr":"633","straatnaam":"VIADUCT-DAM","huisnummer":"2","postcode":"2060","type":"ondergrondse duo","ondergrond_verhard":"ja","opmerking":"","begindatum":"","point_lng":"4.4210839090000604","point_lat":"51.229986283000073"},{"glascontainer_nr":"643","straatnaam":"FRANS HALSPLEIN","huisnummer":"1","postcode":"2000","type":"ondergrondse wit","ondergrond_verhard":"ja","opmerking":"","begindatum":"","point_lng":"4.4115843250000353","point_lat":"51.220607405000067"},{"glascontainer_nr":"363","straatnaam":"HOGEWEG","huisnummer":"4","postcode":"2600","type":"duo glasbol","ondergrond_verhard":"ja","opmerking":"","begindatum":"","point_lng":"4.4183993630000487","point_lat":"51.196141754000053"},{"glascontainer_nr":"615","straatnaam":"UITBREIDINGSTRAAT","huisnummer":"552","postcode":"2600","type":"ondergrondse duo","ondergrond_verhard":"ja","opmerking":"","begindatum":"","point_lng":"4.4348816550000265","point_lat":"51.201855199000079"},{"glascontainer_nr":"1158","straatnaam":"KIELSBROEK","huisnummer":"22","postcode":"2020","type":"duo glasbol","ondergrond_verhard":"ja","opmerking":"oude container van Sita","begindatum":"","point_lng":"4.3763429690000635","point_lat":"51.198018538000042"},{"glascontainer_nr":"409","straatnaam":"KIELSEVEST","huisnummer":"","postcode":"2020","type":"duo glasbol","ondergrond_verhard":"ja","opmerking":"","begindatum":"","point_lng":"4.3927731810000523","point_lat":"51.197930628000051"},{"glascontainer_nr":"366","straatnaam":"DESGUINLEI","huisnummer":"244","postcode":"2020","type":"duo glasbol","ondergrond_verhard":"ja","opmerking":"staat binnen","begindatum":"","point_lng":"4.3988876550000668","point_lat":"51.196885185000042"},{"glascontainer_nr":"258","straatnaam":"MARKGRAVELEI","huisnummer":"90","postcode":"2020","type":"duo glasbol","ondergrond_verhard":"ja","opmerking":"","begindatum":"","point_lng":"4.4024541150000687","point_lat":"51.198589945000037"},{"glascontainer_nr":"274","straatnaam":"BOSMANSLEI","huisnummer":"35","postcode":"2020","type":"duo glasbol","ondergrond_verhard":"ja","opmerking":"","begindatum":"","point_lng":"4.4027235280000241","point_lat":"51.194776716000035"},{"glascontainer_nr":"619","straatnaam":"FRANSENPLAATS","huisnummer":"3","postcode":"2020","type":"ondergrondse duo","ondergrond_verhard":"ja","opmerking":"","begindatum":"","point_lng":"4.3979268620000198","point_lat":"51.200621577000049"},{"glascontainer_nr":"236","straatnaam":"BROEDERMINSTRAAT","huisnummer":"36","postcode":"2020","type":"duo glasbol","ondergrond_verhard":"ja","opmerking":"","begindatum":"","point_lng":"4.3945957740000381","point_lat":"51.202369135000026"},{"glascontainer_nr":"401","straatnaam":"LANGE ELSENSTRAAT","huisnummer":"3","postcode":"2020","type":"duo glasbol","ondergrond_verhard":"ja","opmerking":"","begindatum":"","point_lng":"4.3938146910000455","point_lat":"51.202391828000032"},{"glascontainer_nr":"226","straatnaam":"TROONPLAATS","huisnummer":"","postcode":"2020","type":"duo glasbol","ondergrond_verhard":"ja","opmerking":"","begindatum":"","point_lng":"4.3918087080000419","point_lat":"51.203382678000025"},{"glascontainer_nr":"460","straatnaam":"MONYIGNYSTRAAT","huisnummer":"115","postcode":"2020","type":"duo glasbol","ondergrond_verhard":"ja","opmerking":"","begindatum":"","point_lng":"4.3914704580000716","point_lat":"51.200609555000028"},{"glascontainer_nr":"020","straatnaam":"HAANTJESLEI","huisnummer":"128","postcode":"2020","type":"mono glasbol wit","ondergrond_verhard":"ja","opmerking":"<Null>","begindatum":"","point_lng":"4.4022699180000586","point_lat":"51.20140821800004"},{"glascontainer_nr":"117","straatnaam":"HAANTJESLEI","huisnummer":"128","postcode":"2020","type":"mono glasbol groen","ondergrond_verhard":"ja","opmerking":"","begindatum":"","point_lng":"4.4023343920000571","point_lat":"51.201376685000071"},{"glascontainer_nr":"047","straatnaam":"LANGE LOZANASTRAAT","huisnummer":"72","postcode":"2020","type":"mono glasbol wit","ondergrond_verhard":"ja","opmerking":"<Null>","begindatum":"","point_lng":"4.4045726580000633","point_lat":"51.204527358000064"},{"glascontainer_nr":"153","straatnaam":"LANGE LOZANASTRAAT","huisnummer":"72","postcode":"2020","type":"mono glasbol groen","ondergrond_verhard":"ja","opmerking":"","begindatum":"","point_lng":"4.4045941200000698","point_lat":"51.204473331000031"},{"glascontainer_nr":"472","straatnaam":"SOLVYNSTRAAT","huisnummer":"48","postcode":"2020","type":"duo glasbol","ondergrond_verhard":"ja","opmerking":"","begindatum":"","point_lng":"4.4012344670000516","point_lat":"51.206387656000061"},{"glascontainer_nr":"461","straatnaam":"VOGELZANGLAAN","huisnummer":"","postcode":"2020","type":"duo glasbol","ondergrond_verhard":"ja","opmerking":"","begindatum":"","point_lng":"4.4017885240000396","point_lat":"51.189919383000074"},{"glascontainer_nr":"207","straatnaam":"VAN DER ZWEEPSTRAAT","huisnummer":"12","postcode":"2000","type":"duo glasbol","ondergrond_verhard":"ja","opmerking":"","begindatum":"","point_lng":"4.3852774810000597","point_lat":"51.206934965000073"},{"glascontainer_nr":"285","straatnaam":"VERVIERSSTRAAT","huisnummer":"","postcode":"2000","type":"duo glasbol","ondergrond_verhard":"ja","opmerking":"","begindatum":"","point_lng":"4.3883127480000326","point_lat":"51.208208841000044"},{"glascontainer_nr":"078","straatnaam":"WAALSEKAAI","huisnummer":"","postcode":"2000","type":"mono glasbol wit","ondergrond_verhard":"ja","opmerking":"","begindatum":"","point_lng":"4.3904824360000703","point_lat":"51.210637825000049"},{"glascontainer_nr":"142","straatnaam":"WAALSEKAAI","huisnummer":"","postcode":"2000","type":"mono glasbol groen","ondergrond_verhard":"ja","opmerking":"","begindatum":"","point_lng":"4.390532768000071","point_lat":"51.21067292400005"},{"glascontainer_nr":"031","straatnaam":"VLAAMSEKAAI","huisnummer":"1","postcode":"2000","type":"mono glasbol wit","ondergrond_verhard":"ja","opmerking":"","begindatum":"","point_lng":"4.3935126020000439","point_lat":"51.212083588000041"},{"glascontainer_nr":"130","straatnaam":"VLAAMSEKAAI","huisnummer":"1","postcode":"2000","type":"mono glasbol groen","ondergrond_verhard":"ja","opmerking":"","begindatum":"","point_lng":"4.3935461530000453","point_lat":"51.212122195000063"},{"glascontainer_nr":"605","straatnaam":"VERSCHANSINGSTRAAT","huisnummer":"2","postcode":"2000","type":"ondergrondse duo","ondergrond_verhard":"ja","opmerking":"","begindatum":"","point_lng":"4.3922363270000346","point_lat":"51.208527552000078"},{"glascontainer_nr":"639","straatnaam":"KASTEELSTRAAT","huisnummer":"","postcode":"2000","type":"ondergrondse duo","ondergrond_verhard":"ja","opmerking":"","begindatum":"","point_lng":"4.3927101230000289","point_lat":"51.206189350000045"},{"glascontainer_nr":"631","straatnaam":"BARON DHANISLAAN","huisnummer":"","postcode":"2000","type":"ondergrondse duo","ondergrond_verhard":"ja","opmerking":"","begindatum":"","point_lng":"4.3900735430000282","point_lat":"51.205951582000068"},{"glascontainer_nr":"632","straatnaam":"BARON DHANISLAAN","huisnummer":"","postcode":"2000","type":"ondergrondse duo","ondergrond_verhard":"ja","opmerking":"","begindatum":"","point_lng":"4.3901168780000717","point_lat":"51.20596869600007"},{"glascontainer_nr":"282","straatnaam":"TOLSTRAAT","huisnummer":"45A","postcode":"2000","type":"duo glasbol","ondergrond_verhard":"ja","opmerking":"","begindatum":"","point_lng":"4.3995978250000576","point_lat":"51.209758032000082"},{"glascontainer_nr":"233","straatnaam":"BEGIJNENVEST","huisnummer":"79","postcode":"2000","type":"duo glasbol","ondergrond_verhard":"ja","opmerking":"","begindatum":"","point_lng":"4.4057580190000749","point_lat":"51.210984926000037"},{"glascontainer_nr":"519","straatnaam":"BURCHTSE WEEL","huisnummer":"104","postcode":"2050","type":"duo glasbol","ondergrond_verhard":"ja","opmerking":"","begindatum":"","point_lng":"4.3534505290000425","point_lat":"51.212222419000057"},{"glascontainer_nr":"608","straatnaam":"VARKENSMARKT","huisnummer":"1","postcode":"2000","type":"ondergrondse duo","ondergrond_verhard":"ja","opmerking":"","begindatum":"","point_lng":"4.4074613280000676","point_lat":"51.224873720000062"},{"glascontainer_nr":"407","straatnaam":"BATAVIASTRAAT","huisnummer":"","postcode":"2000","type":"duo glasbol","ondergrond_verhard":"ja","opmerking":"","begindatum":"","point_lng":"4.4039145430000417","point_lat":"51.231076610000059"},{"glascontainer_nr":"191","straatnaam":"MARIA PIJPELINCXSTRAAT","huisnummer":"1","postcode":"2000","type":"mono glasbol groen","ondergrond_verhard":"ja","opmerking":"","begindatum":"","point_lng":"4.4093273160000308","point_lat":"51.216220031000034"},{"glascontainer_nr":"062","straatnaam":"MARIA PIJPELINCXSTRAAT","huisnummer":"1","postcode":"2000","type":"mono glasbol wit","ondergrond_verhard":"ja","opmerking":"","begindatum":"","point_lng":"4.4093290200000297","point_lat":"51.216204993000076"},{"glascontainer_nr":"638","straatnaam":"ENTREPOTPLAATS","huisnummer":"","postcode":"2000","type":"ondergrondse duo","ondergrond_verhard":"ja","opmerking":"","begindatum":"","point_lng":"4.4116608930000325","point_lat":"51.228060044000074"},{"glascontainer_nr":"371","straatnaam":"NAPELSSTRAAT","huisnummer":"37","postcode":"2000","type":"duo glasbol","ondergrond_verhard":"ja","opmerking":"<Null>","begindatum":"","point_lng":"4.4109401400000365","point_lat":"51.232655082000065"},{"glascontainer_nr":"380","straatnaam":"LONDENSTRAAT","huisnummer":"24","postcode":"2000","type":"duo glasbol","ondergrond_verhard":"ja","opmerking":"","begindatum":"","point_lng":"4.409462248000068","point_lat":"51.230954299000075"},{"glascontainer_nr":"396","straatnaam":"SPITSENSTRAAT","huisnummer":"","postcode":"2030","type":"duo glasbol","ondergrond_verhard":"ja","opmerking":"","begindatum":"","point_lng":"4.417272343000036","point_lat":"51.232097671000076"},{"glascontainer_nr":"617","straatnaam":"DRUKKERIJSTRAAT","huisnummer":"36","postcode":"2000","type":"ondergrondse duo","ondergrond_verhard":"ja","opmerking":"","begindatum":"","point_lng":"4.3992143020000753","point_lat":"51.216859127000077"},{"glascontainer_nr":"618","straatnaam":"DRUKKERIJSTRAAT","huisnummer":"38","postcode":"2000","type":"ondergrondse duo","ondergrond_verhard":"ja","opmerking":"","begindatum":"","point_lng":"4.3992142620000436","point_lat":"51.216800765000073"},{"glascontainer_nr":"402","straatnaam":"VRIJDAGMARKT","huisnummer":"9","postcode":"2000","type":"duo glasbol","ondergrond_verhard":"ja","opmerking":"","begindatum":"","point_lng":"4.3990540110000325","point_lat":"51.218259896000063"},{"glascontainer_nr":"038","straatnaam":"SINT-JANSVLIET","huisnummer":"2","postcode":"2000","type":"mono glasbol wit","ondergrond_verhard":"ja","opmerking":"","begindatum":"","point_lng":"4.3955848820000369","point_lat":"51.218645952000031"},{"glascontainer_nr":"137","straatnaam":"SINT-JANSVLIET","huisnummer":"2","postcode":"2000","type":"mono glasbol groen","ondergrond_verhard":"ja","opmerking":"","begindatum":"","point_lng":"4.3956344370000693","point_lat":"51.218630382000072"},{"glascontainer_nr":"370","straatnaam":"VLASMARKT","huisnummer":"26","postcode":"2000","type":"duo glasbol","ondergrond_verhard":"ja","opmerking":"","begindatum":"","point_lng":"4.3975122970000484","point_lat":"51.219680412000059"},{"glascontainer_nr":"128","straatnaam":"GROENPLAATS","huisnummer":"26","postcode":"2000","type":"mono glasbol groen","ondergrond_verhard":"ja","opmerking":"","begindatum":"","point_lng":"4.401743692000025","point_lat":"51.219515852000029"},{"glascontainer_nr":"053","straatnaam":"GROENPLAATS","huisnummer":"26","postcode":"2000","type":"mono glasbol wit","ondergrond_verhard":"ja","opmerking":"","begindatum":"","point_lng":"4.4018242310000346","point_lat":"51.219515829000045"},{"glascontainer_nr":"607","straatnaam":"OUDE KOORNMARKT","huisnummer":"28","postcode":"2000","type":"ondergrondse duo","ondergrond_verhard":"ja","opmerking":"","begindatum":"","point_lng":"4.3998173530000599","point_lat":"51.220158365000032"},{"glascontainer_nr":"600","straatnaam":"SUIKERRUI","huisnummer":"34","postcode":"2000","type":"ondergrondse duo","ondergrond_verhard":"ja","opmerking":"","begindatum":"","point_lng":"4.3989565210000592","point_lat":"51.220687726000051"},{"glascontainer_nr":"601","straatnaam":"GROTE MARKT","huisnummer":"25","postcode":"2000","type":"ondergrondse groen","ondergrond_verhard":"ja","opmerking":"","begindatum":"","point_lng":"4.4008660310000209","point_lat":"51.22132147800005"},{"glascontainer_nr":"602","straatnaam":"GROTE MARKT","huisnummer":"25","postcode":"2000","type":"ondergrondse duo","ondergrond_verhard":"ja","opmerking":"","begindatum":"","point_lng":"4.4008845060000681","point_lat":"51.22131603400004"},{"glascontainer_nr":"414","straatnaam":"OUDAAN","huisnummer":"5","postcode":"2000","type":"duo glasbol","ondergrond_verhard":"ja","opmerking":"","begindatum":"","point_lng":"4.402989147000028","point_lat":"51.21591548300006"},{"glascontainer_nr":"045","straatnaam":"ORGELSTRAAT","huisnummer":"2","postcode":"2000","type":"mono glasbol wit","ondergrond_verhard":"ja","opmerking":"","begindatum":"","point_lng":"4.4078078580000692","point_lat":"51.215827729000068"},{"glascontainer_nr":"147","straatnaam":"ORGELSTRAAT","huisnummer":"2","postcode":"2000","type":"mono glasbol groen","ondergrond_verhard":"ja","opmerking":"","begindatum":"","point_lng":"4.4078873170000747","point_lat":"51.21582770200007"},{"glascontainer_nr":"620","straatnaam":"LANGE GASTHUISSTRAAT","huisnummer":"45","postcode":"2000","type":"ondergrondse duo","ondergrond_verhard":"ja","opmerking":"","begindatum":"","point_lng":"4.4050174430000766","point_lat":"51.213750427000036"},{"glascontainer_nr":"379","straatnaam":"SINT-PIETERSVLIET","huisnummer":"","postcode":"2000","type":"duo glasbol","ondergrond_verhard":"ja","opmerking":"","begindatum":"","point_lng":"4.4005405900000483","point_lat":"51.225987630000077"},{"glascontainer_nr":"647","straatnaam":"FRANS HALSPLEIN","huisnummer":"1","postcode":"2000","type":"ondergrondse groen","ondergrond_verhard":"ja","opmerking":"","begindatum":"","point_lng":"4.4115767860000688","point_lat":"51.220596172000057"},{"glascontainer_nr":"410","straatnaam":"JEZUSSTRAAT","huisnummer":"35","postcode":"2000","type":"duo glasbol","ondergrond_verhard":"ja","opmerking":"","begindatum":"","point_lng":"4.4134349470000416","point_lat":"51.218918085000041"},{"glascontainer_nr":"604","straatnaam":"KEIZERSTRAAT","huisnummer":"71","postcode":"2000","type":"ondergrondse duo","ondergrond_verhard":"ja","opmerking":"","begindatum":"","point_lng":"4.4100943320000283","point_lat":"51.221356595000032"},{"glascontainer_nr":"276","straatnaam":"FRANKLIN ROOSEVELTPLAATS","huisnummer":"","postcode":"2060","type":"duo glasbol","ondergrond_verhard":"ja","opmerking":"","begindatum":"","point_lng":"4.4165736290000268","point_lat":"51.21991915600006"},{"glascontainer_nr":"611","straatnaam":"KORTE WINKELHAAKSTRAAT","huisnummer":"","postcode":"2060","type":"ondergrondse duo","ondergrond_verhard":"ja","opmerking":"","begindatum":"","point_lng":"4.4233443100000613","point_lat":"51.219526494000036"},{"glascontainer_nr":"606","straatnaam":"OFFERANDESTRAAT","huisnummer":"114","postcode":"2060","type":"ondergrondse duo","ondergrond_verhard":"ja","opmerking":"","begindatum":"","point_lng":"4.4273895760000528","point_lat":"51.221321259000035"},{"glascontainer_nr":"616","straatnaam":"DUINSTRAAT","huisnummer":"15","postcode":"2060","type":"ondergrondse duo","ondergrond_verhard":"ja","opmerking":"","begindatum":"","point_lng":"4.4268878580000433","point_lat":"51.221992388000047"},{"glascontainer_nr":"449","straatnaam":"SINT-ELISABETHSTRAAT","huisnummer":"57","postcode":"2060","type":"duo glasbol","ondergrond_verhard":"ja","opmerking":"","begindatum":"","point_lng":"4.4240036650000434","point_lat":"51.222704874000044"},{"glascontainer_nr":"614","straatnaam":"HOLLANSTRAAT","huisnummer":"5","postcode":"2060","type":"ondergrondse duo","ondergrond_verhard":"ja","opmerking":"","begindatum":"","point_lng":"4.4198060300000748","point_lat":"51.224493779000056"},{"glascontainer_nr":"203","straatnaam":"OSYSTRAAT","huisnummer":"16","postcode":"2060","type":"duo glasbol","ondergrond_verhard":"ja","opmerking":"","begindatum":"","point_lng":"4.4183164220000322","point_lat":"51.222018020000064"},{"glascontainer_nr":"275","straatnaam":"DE CONINCKPLEIN","huisnummer":"6","postcode":"2060","type":"duo glasbol","ondergrond_verhard":"ja","opmerking":"","begindatum":"","point_lng":"4.4204080980000526","point_lat":"51.221383321000076"},{"glascontainer_nr":"051","straatnaam":"SINT-JANSPLEIN","huisnummer":"32","postcode":"2060","type":"mono glasbol wit","ondergrond_verhard":"ja","opmerking":"","begindatum":"","point_lng":"4.4185016460000384","point_lat":"51.22482205700004"},{"glascontainer_nr":"044","straatnaam":"BLANCEFLOERLAAN","huisnummer":"181","postcode":"2050","type":"mono glasbol wit","ondergrond_verhard":"ja","opmerking":"","begindatum":"","point_lng":"4.3709795860000327","point_lat":"51.219120423000049"},{"glascontainer_nr":"143","straatnaam":"BLANCEFLOERLAAN","huisnummer":"181","postcode":"2050","type":"mono glasbol groen","ondergrond_verhard":"ja","opmerking":"","begindatum":"","point_lng":"4.3710406020000505","point_lat":"51.219120206000071"},{"glascontainer_nr":"648","straatnaam":"BREYDELSTRAAT","huisnummer":"26","postcode":"2018","type":"ondergrondse groen","ondergrond_verhard":"ja","opmerking":"","begindatum":"","point_lng":"4.4192488300000718","point_lat":"51.21829548200003"},{"glascontainer_nr":"387","straatnaam":"ACHTURENDAGSTRAAT","huisnummer":"27","postcode":"2660","type":"duo glasbol","ondergrond_verhard":"ja","opmerking":"","begindatum":"","point_lng":"4.3380639720000431","point_lat":"51.171337793000077"},{"glascontainer_nr":"649","straatnaam":"MARIA-HENRIETTALEI","huisnummer":"113","postcode":"2660","type":"ondergrondse duo","ondergrond_verhard":"ja","opmerking":"","begindatum":"","point_lng":"4.3519180200000278","point_lat":"51.181325426000058"},{"glascontainer_nr":"129","straatnaam":"SINT-JANSPLEIN","huisnummer":"31","postcode":"2060","type":"mono glasbol groen","ondergrond_verhard":"ja","opmerking":"","begindatum":"","point_lng":"4.4185705740000571","point_lat":"51.224825119000059"},{"glascontainer_nr":"152","straatnaam":"SINT-JANSPLEIN","huisnummer":"61","postcode":"2060","type":"mono glasbol groen","ondergrond_verhard":"ja","opmerking":"","begindatum":"","point_lng":"4.4169616150000479","point_lat":"51.225815128000079"},{"glascontainer_nr":"046","straatnaam":"SINT-JANSPLEIN","huisnummer":"61","postcode":"2060","type":"mono glasbol wit","ondergrond_verhard":"ja","opmerking":"","begindatum":"","point_lng":"4.4170108530000221","point_lat":"51.225824383000031"},{"glascontainer_nr":"231","straatnaam":"VAN DE WERVESTRAAT","huisnummer":"","postcode":"2060","type":"duo glasbol","ondergrond_verhard":"ja","opmerking":"","begindatum":"","point_lng":"4.4157289190000597","point_lat":"51.228867083000068"},{"glascontainer_nr":"206","straatnaam":"ELLERMANSTRAAT","huisnummer":"36","postcode":"2060","type":"duo glasbol","ondergrond_verhard":"ja","opmerking":"","begindatum":"","point_lng":"4.417271233000065","point_lat":"51.229892862000042"},{"glascontainer_nr":"442","straatnaam":"ORANJESTRAAT","huisnummer":"94","postcode":"2060","type":"duo glasbol","ondergrond_verhard":"ja","opmerking":"","begindatum":"","point_lng":"4.4231286520000594","point_lat":"51.227951800000028"},{"glascontainer_nr":"436","straatnaam":"EVERAERTSSTRAAT","huisnummer":"72","postcode":"2060","type":"duo glasbol","ondergrond_verhard":"ja","opmerking":"","begindatum":"","point_lng":"4.4251465050000434","point_lat":"51.227177923000056"},{"glascontainer_nr":"637","straatnaam":"OSSENMARKT","huisnummer":"31","postcode":"2000","type":"ondergrondse duo","ondergrond_verhard":"ja","opmerking":"","begindatum":"","point_lng":"4.4134352560000707","point_lat":"51.221903357000031"},{"glascontainer_nr":"228","straatnaam":"MARIA-THERESIALEI","huisnummer":"1","postcode":"2018","type":"duo glasbol","ondergrond_verhard":"ja","opmerking":"","begindatum":"","point_lng":"4.4153352740000287","point_lat":"51.215071629000079"},{"glascontainer_nr":"635","straatnaam":"BREYDELSTRAAT","huisnummer":"26","postcode":"2018","type":"ondergrondse wit","ondergrond_verhard":"ja","opmerking":"","begindatum":"","point_lng":"4.4192543890000593","point_lat":"51.218326795000053"},{"glascontainer_nr":"621","straatnaam":"VIADUCTDAM","huisnummer":"86","postcode":"2060","type":"ondergrondse duo","ondergrond_verhard":"ja","opmerking":"<Null>","begindatum":"","point_lng":"4.4244272700000238","point_lat":"51.23213915000008"},{"glascontainer_nr":"622","straatnaam":"DAMPLEIN","huisnummer":"27","postcode":"2060","type":"ondergrondse duo","ondergrond_verhard":"ja","opmerking":"","begindatum":"","point_lng":"4.4258509040000718","point_lat":"51.231719410000039"},{"glascontainer_nr":"354","straatnaam":"NOORDSCHIPPERSDOK","huisnummer":"","postcode":"2060","type":"duo glasbol","ondergrond_verhard":"ja","opmerking":"","begindatum":"","point_lng":"4.4301063030000591","point_lat":"51.233656579000069"},{"glascontainer_nr":"372","straatnaam":"KALVERSTRAAT","huisnummer":"4","postcode":"2060","type":"duo glasbol","ondergrond_verhard":"nee","opmerking":"","begindatum":"","point_lng":"4.4318903590000218","point_lat":"51.230643216000033"},{"glascontainer_nr":"393","straatnaam":"KALVERSTRAAT","huisnummer":"","postcode":"2060","type":"duo glasbol","ondergrond_verhard":"ja","opmerking":"","begindatum":"","point_lng":"4.4323892730000694","point_lat":"51.229598217000046"},{"glascontainer_nr":"475","straatnaam":"KALVERSTRAAT","huisnummer":"6","postcode":"2060","type":"duo glasbol","ondergrond_verhard":"ja","opmerking":"","begindatum":"","point_lng":"4.437404789000027","point_lat":"51.227269687000046"},{"glascontainer_nr":"050","straatnaam":"NOORDERSINGEL","huisnummer":"","postcode":"2140","type":"mono glasbol wit","ondergrond_verhard":"ja","opmerking":"containerpark","begindatum":"","point_lng":"4.446661104000043","point_lat":"51.224022522000041"},{"glascontainer_nr":"148","straatnaam":"NOORDERSINGEL","huisnummer":"","postcode":"2140","type":"mono glasbol groen","ondergrond_verhard":"ja","opmerking":"containerpark","begindatum":"","point_lng":"4.4467037890000256","point_lat":"51.224039545000039"},{"glascontainer_nr":"425","straatnaam":"GULDENSPORENSTRAAT","huisnummer":"4","postcode":"2140","type":"duo glasbol","ondergrond_verhard":"ja","opmerking":"","begindatum":"","point_lng":"4.4414015620000669","point_lat":"51.223050777000026"},{"glascontainer_nr":"628","straatnaam":"GROENINGERPLEIN","huisnummer":"","postcode":"2140","type":"ondergrondse duo","ondergrond_verhard":"ja","opmerking":"","begindatum":"","point_lng":"4.4388466530000414","point_lat":"51.219893715000069"},{"glascontainer_nr":"445","straatnaam":"JAN BORLUUTPLEIN","huisnummer":"4","postcode":"2140","type":"duo glasbol","ondergrond_verhard":"ja","opmerking":"","begindatum":"","point_lng":"4.4410837230000766","point_lat":"51.219915893000064"},{"glascontainer_nr":"431","straatnaam":"HELMSTRAAT","huisnummer":"163","postcode":"2140","type":"duo glasbol","ondergrond_verhard":"ja","opmerking":"","begindatum":"","point_lng":"4.4388496970000233","point_lat":"51.218562539000061"},{"glascontainer_nr":"451","straatnaam":"WIJNEGEMSTRAAT","huisnummer":"40","postcode":"2140","type":"duo glasbol","ondergrond_verhard":"ja","opmerking":"","begindatum":"","point_lng":"4.4435803240000382","point_lat":"51.218993567000041"},{"glascontainer_nr":"373","straatnaam":"HOF TER LO","huisnummer":"6B","postcode":"2140","type":"duo glasbol","ondergrond_verhard":"ja","opmerking":"","begindatum":"","point_lng":"4.4462417850000406","point_lat":"51.218983033000029"},{"glascontainer_nr":"389","straatnaam":"HOF TER LO","huisnummer":"","postcode":"2140","type":"duo glasbol","ondergrond_verhard":"ja","opmerking":"","begindatum":"","point_lng":"4.4482801360000508","point_lat":"51.22045660100008"},{"glascontainer_nr":"422","straatnaam":"NIJVERHEIDSTRAAT","huisnummer":"","postcode":"2140","type":"duo glasbol","ondergrond_verhard":"ja","opmerking":"","begindatum":"","point_lng":"4.4277853070000219","point_lat":"51.226395741000033"},{"glascontainer_nr":"390","straatnaam":"CARNOTSTRAAT","huisnummer":"91","postcode":"2060","type":"duo glasbol","ondergrond_verhard":"ja","opmerking":"","begindatum":"","point_lng":"4.4256607760000293","point_lat":"51.218274361000056"},{"glascontainer_nr":"417","straatnaam":"CARNOTSTRAAT","huisnummer":"129","postcode":"2060","type":"duo glasbol","ondergrond_verhard":"ja","opmerking":"","begindatum":"","point_lng":"4.4274495730000467","point_lat":"51.217812730000048"},{"glascontainer_nr":"650","straatnaam":"PLOEGSTRAAT","huisnummer":"10","postcode":"2018","type":"ondergrondse duo","ondergrond_verhard":"ja","opmerking":" ","begindatum":"","point_lng":"4.4236967870000399","point_lat":"51.214523664000069"},{"glascontainer_nr":"603","straatnaam":"KERKSTRAAT","huisnummer":"80","postcode":"2060","type":"ondergrondse duo","ondergrond_verhard":"ja","opmerking":"","begindatum":"","point_lng":"4.4315124210000363","point_lat":"51.218739507000066"},{"glascontainer_nr":"642","straatnaam":"MAARSCHALK MONTGOMERYPLEIN","huisnummer":"4","postcode":"2140","type":"ondergrondse duo","ondergrond_verhard":"ja","opmerking":"","begindatum":"","point_lng":"4.4377100090000567","point_lat":"51.211774761000072"},{"glascontainer_nr":"355","straatnaam":"Luitenant Naeyaertplein","huisnummer":"30","postcode":"2140","type":"duo glasbol","ondergrond_verhard":"ja","opmerking":"","begindatum":"","point_lng":"4.4392113110000651","point_lat":"51.210277402000031"},{"glascontainer_nr":"386","straatnaam":"FONTEINSTRAAT","huisnummer":"50","postcode":"2140","type":"duo glasbol","ondergrond_verhard":"ja","opmerking":"","begindatum":"","point_lng":"4.4422607380000727","point_lat":"51.211642680000068"},{"glascontainer_nr":"398","straatnaam":"GRAVINSTRAAT","huisnummer":"48","postcode":"2140","type":"duo glasbol","ondergrond_verhard":"ja","opmerking":"","begindatum":"","point_lng":"4.4438286960000255","point_lat":"51.215027745000043"},{"glascontainer_nr":"443","straatnaam":"DELAREYSTRAAT","huisnummer":"3","postcode":"2140","type":"duo glasbol","ondergrond_verhard":"ja","opmerking":"","begindatum":"","point_lng":"4.4408300610000424","point_lat":"51.215790010000035"},{"glascontainer_nr":"052","straatnaam":"Drink","huisnummer":"","postcode":"2140","type":"mono glasbol wit","ondergrond_verhard":"ja","opmerking":"","begindatum":"","point_lng":"4.435067641000046","point_lat":"51.214950673000033"},{"glascontainer_nr":"135","straatnaam":"Drink","huisnummer":"","postcode":"2140","type":"mono glasbol groen","ondergrond_verhard":"ja","opmerking":"","begindatum":"","point_lng":"4.4350915530000634","point_lat":"51.214988123000069"},{"glascontainer_nr":"453","straatnaam":"LAAR","huisnummer":"29","postcode":"2140","type":"duo glasbol","ondergrond_verhard":"ja","opmerking":"","begindatum":"","point_lng":"4.4343127700000764","point_lat":"51.21671905200003"},{"glascontainer_nr":"424","straatnaam":"LANGE BEELDEKENSSTRAAT","huisnummer":"322","postcode":"2060","type":"duo glasbol","ondergrond_verhard":"ja","opmerking":"<Null>","begindatum":"","point_lng":"4.4364978210000459","point_lat":"51.222563667000031"},{"glascontainer_nr":"609","straatnaam":"POTHOEKSTRAAT","huisnummer":"98","postcode":"2060","type":"ondergrondse duo","ondergrond_verhard":"ja","opmerking":"<Null>","begindatum":"","point_lng":"4.4365879390000487","point_lat":"51.223460296000042"},{"glascontainer_nr":"612","straatnaam":"FRANS DE CORTSTRAAT","huisnummer":"3","postcode":"2060","type":"ondergrondse duo","ondergrond_verhard":"ja","opmerking":"","begindatum":"","point_lng":"4.4333476310000606","point_lat":"51.224201153000081"},{"glascontainer_nr":"613","straatnaam":"LANGE STUIVENBERGSTRAAT","huisnummer":"82","postcode":"2060","type":"ondergrondse duo","ondergrond_verhard":"ja","opmerking":"","begindatum":"","point_lng":"4.4317826900000341","point_lat":"51.224387895000064"},{"glascontainer_nr":"440","straatnaam":"POMPOENSTRAAT","huisnummer":"2","postcode":"2060","type":"duo glasbol","ondergrond_verhard":"ja","opmerking":"","begindatum":"","point_lng":"4.4334107590000258","point_lat":"51.226975356000025"},{"glascontainer_nr":"281","straatnaam":"STUIVENBERGPLEIN","huisnummer":"","postcode":"2060","type":"duo glasbol","ondergrond_verhard":"nee","opmerking":"","begindatum":"","point_lng":"4.4308650880000755","point_lat":"51.227151015000061"},{"glascontainer_nr":"029","straatnaam":"WILGENSTRAAT","huisnummer":"","postcode":"2060","type":"mono glasbol wit","ondergrond_verhard":"ja","opmerking":"","begindatum":"","point_lng":"4.4271104500000433","point_lat":"51.225305792000029"},{"glascontainer_nr":"132","straatnaam":"WILGENSTRAAT","huisnummer":"","postcode":"2060","type":"mono glasbol groen","ondergrond_verhard":"ja","opmerking":"","begindatum":"","point_lng":"4.4271511670000336","point_lat":"51.225310419000039"},{"glascontainer_nr":"651","straatnaam":"COREMANSSTRAAT","huisnummer":" ","postcode":"2600","type":"ondergrondse duo","ondergrond_verhard":"ja","opmerking":" ","begindatum":"","point_lng":"4.4213786580000374","point_lat":"51.189830157000074"},{"glascontainer_nr":"367","straatnaam":"ELISABETHLAAN","huisnummer":"42","postcode":"2600","type":"duo glasbol","ondergrond_verhard":"ja","opmerking":"<Null>","begindatum":"","point_lng":"4.4233309270000518","point_lat":"51.187850708000042"},{"glascontainer_nr":"400","straatnaam":"FLORALIENLAAN","huisnummer":"","postcode":"2600","type":"duo glasbol","ondergrond_verhard":"nee","opmerking":"","begindatum":"","point_lng":"4.418650446000072","point_lat":"51.186703062000049"},{"glascontainer_nr":"221","straatnaam":"FLORALIENLAAN","huisnummer":"298","postcode":"2600","type":"duo glasbol","ondergrond_verhard":"ja","opmerking":"","begindatum":"","point_lng":"4.4239535490000321","point_lat":"51.181994002000067"},{"glascontainer_nr":"644","straatnaam":"STRIJDHOFLAAN","huisnummer":"116","postcode":"2600","type":"ondergrondse duo","ondergrond_verhard":"ja","opmerking":"","begindatum":"","point_lng":"4.4282625270000722","point_lat":"51.183138647000078"},{"glascontainer_nr":"263","straatnaam":"FRUITHOFLAAN","huisnummer":"11","postcode":"2600","type":"duo glasbol","ondergrond_verhard":"ja","opmerking":"","begindatum":"","point_lng":"4.4345968910000693","point_lat":"51.180485757000042"},{"glascontainer_nr":"202","straatnaam":"RINGLAAN","huisnummer":"1","postcode":"2600","type":"duo glasbol","ondergrond_verhard":"ja","opmerking":"","begindatum":"","point_lng":"4.4326919820000512","point_lat":"51.17981111000006"},{"glascontainer_nr":"054","straatnaam":"DE ROEST D'ALKEMADELAAN","huisnummer":"","postcode":"2600","type":"mono glasbol wit","ondergrond_verhard":"ja","opmerking":"","begindatum":"","point_lng":"4.4328376410000487","point_lat":"51.183379039000044"},{"glascontainer_nr":"175","straatnaam":"DE ROEST D'ALKEMADELAAN","huisnummer":"","postcode":"2600","type":"mono glasbol groen","ondergrond_verhard":"ja","opmerking":"","begindatum":"","point_lng":"4.4328476320000618","point_lat":"51.18334430200008"},{"glascontainer_nr":"286","straatnaam":"ROOIPLEIN","huisnummer":"6","postcode":"2600","type":"duo glasbol","ondergrond_verhard":"ja","opmerking":"achterkant","begindatum":"","point_lng":"4.4355218790000208","point_lat":"51.185010802000079"},{"glascontainer_nr":"056","straatnaam":"FLOR ALPAERTSSTRAAT","huisnummer":"","postcode":"2600","type":"mono glasbol wit","ondergrond_verhard":"ja","opmerking":"","begindatum":"","point_lng":"4.4388605980000762","point_lat":"51.182854560000067"},{"glascontainer_nr":"163","straatnaam":"FLOR ALPAERTSSTRAAT","huisnummer":"","postcode":"2600","type":"mono glasbol groen","ondergrond_verhard":"ja","opmerking":"","begindatum":"","point_lng":"4.4388957220000407","point_lat":"51.182826117000047"},{"glascontainer_nr":"055","straatnaam":"FRUITHOFLAAN","huisnummer":"99","postcode":"2600","type":"mono glasbol wit","ondergrond_verhard":"ja","opmerking":"","begindatum":"","point_lng":"4.4414154170000302","point_lat":"51.184535947000029"},{"glascontainer_nr":"169","straatnaam":"FRUITHOFLAAN","huisnummer":"99","postcode":"2600","type":"mono glasbol groen","ondergrond_verhard":"ja","opmerking":"","begindatum":"","point_lng":"4.4414455260000523","point_lat":"51.184510670000066"},{"glascontainer_nr":"374","straatnaam":"SPOORWEGSTRAAT","huisnummer":"79","postcode":"2600","type":"duo glasbol","ondergrond_verhard":"nee","opmerking":"","begindatum":"","point_lng":"4.4408711360000552","point_lat":"51.189856708000036"},{"glascontainer_nr":"069","straatnaam":"KANUNNIK PEETERSSTRAAT","huisnummer":"82","postcode":"2600","type":"mono glasbol wit","ondergrond_verhard":"ja","opmerking":"<Null>","begindatum":"","point_lng":"4.4329325200000653","point_lat":"51.190139234000071"},{"glascontainer_nr":"171","straatnaam":"KANUNNIK PEETERSSTRAAT","huisnummer":"82","postcode":"2600","type":"mono glasbol groen","ondergrond_verhard":"ja","opmerking":"","begindatum":"","point_lng":"4.4329525820000413","point_lat":"51.190104491000056"},{"glascontainer_nr":"352","straatnaam":"HENRI PROSTLAAN","huisnummer":"5","postcode":"2600","type":"duo glasbol","ondergrond_verhard":"ja","opmerking":"","begindatum":"","point_lng":"4.4297799800000348","point_lat":"51.188600074000078"},{"glascontainer_nr":"357","straatnaam":"POLYGOONSTRAAT","huisnummer":"49","postcode":"2600","type":"duo glasbol","ondergrond_verhard":"nee","opmerking":"","begindatum":"","point_lng":"4.4325100110000335","point_lat":"51.19343275600005"},{"glascontainer_nr":"058","straatnaam":"ARBEIDERSSTRAAT","huisnummer":"","postcode":"2600","type":"mono glasbol wit","ondergrond_verhard":"ja","opmerking":"containerpark","begindatum":"","point_lng":"4.4374861410000221","point_lat":"51.19430453800004"},{"glascontainer_nr":"158","straatnaam":"ARBEIDERSSTRAAT","huisnummer":"","postcode":"2600","type":"mono glasbol groen","ondergrond_verhard":"ja","opmerking":"containerpark","begindatum":"","point_lng":"4.4374308990000486","point_lat":"51.194326673000035"},{"glascontainer_nr":"057","straatnaam":"ARBEIDERSSTRAAT","huisnummer":"","postcode":"2600","type":"mono glasbol wit","ondergrond_verhard":"ja","opmerking":"containerpark","begindatum":"","point_lng":"4.4374509220000391","point_lat":"51.19427614600005"},{"glascontainer_nr":"172","straatnaam":"ARBEIDERSSTRAAT","huisnummer":"","postcode":"2600","type":"mono glasbol groen","ondergrond_verhard":"ja","opmerking":"containerpark","begindatum":"","point_lng":"4.4373956850000695","point_lat":"51.194301436000046"},{"glascontainer_nr":"261","straatnaam":"CORNEEL VAN REETHSTRAAT","huisnummer":"7","postcode":"2600","type":"duo glasbol","ondergrond_verhard":"ja","opmerking":"","begindatum":"","point_lng":"4.4377225930000463","point_lat":"51.197821863000058"},{"glascontainer_nr":"278","straatnaam":"EDELGESTEENTENSTRAAT","huisnummer":"85","postcode":"2600","type":"duo glasbol","ondergrond_verhard":"ja","opmerking":"","begindatum":"","point_lng":"4.4414452070000721","point_lat":"51.196995482000034"},{"glascontainer_nr":"316","straatnaam":"DIANALAAN","huisnummer":"176","postcode":"2600","type":"duo glasbol","ondergrond_verhard":"ja","opmerking":"","begindatum":"","point_lng":"4.4443123420000461","point_lat":"51.19553804800006"},{"glascontainer_nr":"397","straatnaam":"PASSENDALESTRAAT","huisnummer":"40","postcode":"2600","type":"duo glasbol","ondergrond_verhard":"ja","opmerking":"","begindatum":"","point_lng":"4.4466285490000246","point_lat":"51.195268132000081"},{"glascontainer_nr":"176","straatnaam":"DIANALAAN","huisnummer":"82","postcode":"2600","type":"mono glasbol groen","ondergrond_verhard":"ja","opmerking":"","begindatum":"","point_lng":"4.444315930000073","point_lat":"51.197716720000074"},{"glascontainer_nr":"071","straatnaam":"DIANALAAN","huisnummer":"82","postcode":"2600","type":"mono glasbol wit","ondergrond_verhard":"ja","opmerking":"","begindatum":"","point_lng":"4.4442959030000679","point_lat":"51.197760938000044"},{"glascontainer_nr":"324","straatnaam":"DIKSMUIDELAAN","huisnummer":"24","postcode":"2600","type":"duo glasbol","ondergrond_verhard":"ja","opmerking":"","begindatum":"","point_lng":"4.4390082640000514","point_lat":"51.200527081000075"},{"glascontainer_nr":"365","straatnaam":"VOSSTRAAT","huisnummer":"338","postcode":"2100","type":"duo glasbol","ondergrond_verhard":"ja","opmerking":"","begindatum":"","point_lng":"4.4487912960000244","point_lat":"51.190577749000056"},{"glascontainer_nr":"498","straatnaam":"POTVLIETLAAN","huisnummer":"7","postcode":"2600","type":"duo glasbol","ondergrond_verhard":"ja","opmerking":"","begindatum":"","point_lng":"4.4424216210000509","point_lat":"51.204165565000039"},{"glascontainer_nr":"074","straatnaam":"FRANS DE VRIENDTSTRAAT","huisnummer":"59","postcode":"2140","type":"mono glasbol wit","ondergrond_verhard":"ja","opmerking":"","begindatum":"","point_lng":"4.4444268310000439","point_lat":"51.204012713000054"},{"glascontainer_nr":"162","straatnaam":"FRANS DE VRIENDTSTRAAT","huisnummer":"59","postcode":"2140","type":"mono glasbol groen","ondergrond_verhard":"ja","opmerking":"","begindatum":"","point_lng":"4.4443865730000311","point_lat":"51.203981163000037"},{"glascontainer_nr":"156","straatnaam":"TER HEYDELAAN","huisnummer":"235","postcode":"2100","type":"mono glasbol groen","ondergrond_verhard":"ja","opmerking":"","begindatum":"","point_lng":"4.4688409120000756","point_lat":"51.228267046000042"},{"glascontainer_nr":"018","straatnaam":"TER HEYDELAAN","huisnummer":"235","postcode":"2100","type":"mono glasbol wit","ondergrond_verhard":"ja","opmerking":"","begindatum":"","point_lng":"4.4687719360000528","point_lat":"51.228245461000029"},{"glascontainer_nr":"025","straatnaam":"BARON LEROYSTRAAT","huisnummer":"142","postcode":"2100","type":"mono glasbol wit","ondergrond_verhard":"ja","opmerking":"","begindatum":"","point_lng":"4.4723007210000674","point_lat":"51.225665829000036"},{"glascontainer_nr":"103","straatnaam":"BARON LEROYSTRAAT","huisnummer":"142","postcode":"2100","type":"mono glasbol groen","ondergrond_verhard":"ja","opmerking":"","begindatum":"","point_lng":"4.472368958000061","point_lat":"51.225690739000072"},{"glascontainer_nr":"070","straatnaam":"TER RIVIERENLAAN","huisnummer":"111","postcode":"2100","type":"mono glasbol wit","ondergrond_verhard":"ja","opmerking":"","begindatum":"","point_lng":"4.469359612000062","point_lat":"51.223866929000053"},{"glascontainer_nr":"119","straatnaam":"TER RIVIERENLAAN","huisnummer":"111","postcode":"2100","type":"mono glasbol groen","ondergrond_verhard":"ja","opmerking":"","begindatum":"","point_lng":"4.4693540230000508","point_lat":"51.223909745000071"},{"glascontainer_nr":"012","straatnaam":"VENNEBORGLAAN","huisnummer":"148","postcode":"2100","type":"ondergrondse wit","ondergrond_verhard":"ja","opmerking":"","begindatum":"","point_lng":"4.4756541960000504","point_lat":"51.223893444000055"},{"glascontainer_nr":"126","straatnaam":"VENNEBORGLAAN","huisnummer":"148","postcode":"2100","type":"mono glasbol groen","ondergrond_verhard":"ja","opmerking":"","begindatum":"","point_lng":"4.4757054090000565","point_lat":"51.223929072000033"},{"glascontainer_nr":"016","straatnaam":"RUGGEVELDLAAN","huisnummer":"618","postcode":"2100","type":"mono glasbol wit","ondergrond_verhard":"ja","opmerking":"","begindatum":"","point_lng":"4.4790740960000335","point_lat":"51.223875992000046"},{"glascontainer_nr":"118","straatnaam":"RUGGEVELDLAAN","huisnummer":"618","postcode":"2100","type":"mono glasbol groen","ondergrond_verhard":"ja","opmerking":"","begindatum":"","point_lng":"4.4791479430000436","point_lat":"51.223875922000047"},{"glascontainer_nr":"075","straatnaam":"RUGGEVELDLAAN","huisnummer":"664","postcode":"2100","type":"mono glasbol wit","ondergrond_verhard":"ja","opmerking":"","begindatum":"","point_lng":"4.4790613170000597","point_lat":"51.225659643000029"},{"glascontainer_nr":"146","straatnaam":"RUGGEVELDLAAN","huisnummer":"664","postcode":"2100","type":"mono glasbol groen","ondergrond_verhard":"ja","opmerking":"","begindatum":"","point_lng":"4.4791408640000441","point_lat":"51.225659568000026"},{"glascontainer_nr":"063","straatnaam":"RUGGEVELDLAAN","huisnummer":"711","postcode":"2100","type":"mono glasbol wit","ondergrond_verhard":"ja","opmerking":"","begindatum":"","point_lng":"4.4789991570000325","point_lat":"51.228171066000073"},{"glascontainer_nr":"115","straatnaam":"RUGGEVELDLAAN","huisnummer":"711","postcode":"2100","type":"mono glasbol groen","ondergrond_verhard":"ja","opmerking":"","begindatum":"","point_lng":"4.4790786940000658","point_lat":"51.22817099100007"},{"glascontainer_nr":"295","straatnaam":"EUGEEN FAHYLAAN","huisnummer":"","postcode":"2100","type":"duo glasbol","ondergrond_verhard":"ja","opmerking":"","begindatum":"","point_lng":"4.4830488730000297","point_lat":"51.232273103000068"},{"glascontainer_nr":"019","straatnaam":"TER HEYDELAAN","huisnummer":"","postcode":"2100","type":"mono glasbol wit","ondergrond_verhard":"ja","opmerking":"","begindatum":"","point_lng":"4.479315118000045","point_lat":"51.231991312000048"},{"glascontainer_nr":"122","straatnaam":"TER HEYDELAAN","huisnummer":"","postcode":"2100","type":"mono glasbol groen","ondergrond_verhard":"ja","opmerking":"","begindatum":"","point_lng":"4.4793152380000265","point_lat":"51.232041252000045"},{"glascontainer_nr":"318","straatnaam":"BISSCHOPPENHOFLAAN","huisnummer":"533","postcode":"2100","type":"duo glasbol","ondergrond_verhard":"ja","opmerking":"","begindatum":"","point_lng":"4.4741518610000526","point_lat":"51.235192353000059"},{"glascontainer_nr":"323","straatnaam":"KEESINGLAAN","huisnummer":"13","postcode":"2100","type":"duo glasbol","ondergrond_verhard":"ja","opmerking":"","begindatum":"","point_lng":"4.4647646200000395","point_lat":"51.235193310000056"},{"glascontainer_nr":"296","straatnaam":"AUGUST VAN DE WIELELEI","huisnummer":"224","postcode":"2100","type":"duo glasbol","ondergrond_verhard":"ja","opmerking":"","begindatum":"","point_lng":"4.4833016460000295","point_lat":"51.219796665000047"},{"glascontainer_nr":"302","straatnaam":"AUGUST VAN DE WIELELEI","huisnummer":"263","postcode":"2100","type":"duo glasbol","ondergrond_verhard":"ja","opmerking":"","begindatum":"","point_lng":"4.4863117150000562","point_lat":"51.220849483000052"},{"glascontainer_nr":"218","straatnaam":"TER HEYDELAAN","huisnummer":"36","postcode":"2100","type":"duo glasbol","ondergrond_verhard":"ja","opmerking":"","begindatum":"","point_lng":"4.4580350010000416","point_lat":"51.225398643000062"},{"glascontainer_nr":"495","straatnaam":"LAKBORSLEI","huisnummer":"10","postcode":"2100","type":"duo glasbol","ondergrond_verhard":"ja","opmerking":"","begindatum":"","point_lng":"4.4546361850000267","point_lat":"51.220394741000064"},{"glascontainer_nr":"059","straatnaam":"TEN EEKHOVELEI","huisnummer":"32","postcode":"2100","type":"mono glasbol wit","ondergrond_verhard":"ja","opmerking":"","begindatum":"","point_lng":"4.4525196070000561","point_lat":"51.225013226000044"},{"glascontainer_nr":"112","straatnaam":"TEN EEKHOVELEI","huisnummer":"32","postcode":"2100","type":"mono glasbol groen","ondergrond_verhard":"ja","opmerking":"","begindatum":"","point_lng":"4.4525320950000378","point_lat":"51.225063849000037"},{"glascontainer_nr":"293","straatnaam":"JOZEF NELLENSLEI","huisnummer":"1","postcode":"2100","type":"duo glasbol","ondergrond_verhard":"ja","opmerking":"","begindatum":"","point_lng":"4.4514855360000638","point_lat":"51.226053957000033"},{"glascontainer_nr":"028","straatnaam":"FRANK CRAEYBECKXLAAN","huisnummer":"25","postcode":"2100","type":"mono glasbol wit","ondergrond_verhard":"ja","opmerking":"","begindatum":"","point_lng":"4.4592685280000524","point_lat":"51.221779125000069"},{"glascontainer_nr":"113","straatnaam":"FRANK CRAEYBECKXLAAN","huisnummer":"25","postcode":"2100","type":"mono glasbol groen","ondergrond_verhard":"ja","opmerking":"","begindatum":"","point_lng":"4.4593491790000712","point_lat":"51.221782955000037"},{"glascontainer_nr":"061","straatnaam":"GALLIFORTLEI","huisnummer":"39","postcode":"2100","type":"mono glasbol wit","ondergrond_verhard":"ja","opmerking":"","begindatum":"","point_lng":"4.4619779600000697","point_lat":"51.221192727000073"},{"glascontainer_nr":"125","straatnaam":"GALLIFORTLEI","huisnummer":"39","postcode":"2100","type":"mono glasbol groen","ondergrond_verhard":"ja","opmerking":"","begindatum":"","point_lng":"4.4619344540000725","point_lat":"51.221153806000075"},{"glascontainer_nr":"205","straatnaam":"CORNELIS SCHUTSTRAAT","huisnummer":"22","postcode":"2100","type":"duo glasbol","ondergrond_verhard":"ja","opmerking":"","begindatum":"","point_lng":"4.4622335160000262","point_lat":"51.224857820000068"},{"glascontainer_nr":"315","straatnaam":"BISSCHOPPENHOFLAAN","huisnummer":"68","postcode":"2100","type":"duo glasbol","ondergrond_verhard":"ja","opmerking":"","begindatum":"","point_lng":"4.4463499610000667","point_lat":"51.230186305000075"},{"glascontainer_nr":"313","straatnaam":"VAN AMSTELSTRAAT","huisnummer":"28","postcode":"2100","type":"duo glasbol","ondergrond_verhard":"ja","opmerking":"","begindatum":"","point_lng":"4.4444928970000319","point_lat":"51.232672606000051"},{"glascontainer_nr":"307","straatnaam":"VAN AMSTELSTRAAT","huisnummer":"129","postcode":"2100","type":"duo glasbol","ondergrond_verhard":"ja","opmerking":"","begindatum":"","point_lng":"4.4483893520000493","point_lat":"51.232790754000064"},{"glascontainer_nr":"322","straatnaam":"VAN DUYSTSTRAAT","huisnummer":"255","postcode":"2100","type":"duo glasbol","ondergrond_verhard":"ja","opmerking":"","begindatum":"","point_lng":"4.4527632270000481","point_lat":"51.232721463000075"},{"glascontainer_nr":"131","straatnaam":"VAN HEETVELDELEI","huisnummer":"127","postcode":"2100","type":"mono glasbol groen","ondergrond_verhard":"ja","opmerking":"","begindatum":"","point_lng":"4.4513558350000721","point_lat":"51.229812828000036"},{"glascontainer_nr":"060","straatnaam":"VAN HEETVELDELEI","huisnummer":"129","postcode":"2100","type":"mono glasbol wit","ondergrond_verhard":"ja","opmerking":"","begindatum":"","point_lng":"4.4514178740000716","point_lat":"51.229816676000041"},{"glascontainer_nr":"072","straatnaam":"MERKSEMSESTEENWEG","huisnummer":"","postcode":"2100","type":"mono glasbol wit","ondergrond_verhard":"ja","opmerking":"containerpark","begindatum":"","point_lng":"4.4563697220000336","point_lat":"51.236941096000066"},{"glascontainer_nr":"177","straatnaam":"MERKSEMSESTEENWEG","huisnummer":"","postcode":"2100","type":"mono glasbol groen","ondergrond_verhard":"ja","opmerking":"containerpark","begindatum":"","point_lng":"4.4564068750000274","point_lat":"51.236902112000053"},{"glascontainer_nr":"066","straatnaam":"MERKSEMSESTEENWEG","huisnummer":"","postcode":"2100","type":"mono glasbol wit","ondergrond_verhard":"ja","opmerking":"containerpark","begindatum":"","point_lng":"4.4564502340000445","point_lat":"51.236859232000029"},{"glascontainer_nr":"173","straatnaam":"MERKSEMSESTEENWEG","huisnummer":"","postcode":"2100","type":"mono glasbol groen","ondergrond_verhard":"ja","opmerking":"containerpark","begindatum":"","point_lng":"4.4564811870000653","point_lat":"51.236820263000027"},{"glascontainer_nr":"039","straatnaam":"GIJSBRECHT VAN DEURNELAAN","huisnummer":"19","postcode":"2100","type":"mono glasbol wit","ondergrond_verhard":"ja","opmerking":"","begindatum":"","point_lng":"4.4606595000000766","point_lat":"51.231866374000049"},{"glascontainer_nr":"154","straatnaam":"GIJSBRECHT VAN DEURNELAAN","huisnummer":"19","postcode":"2100","type":"mono glasbol groen","ondergrond_verhard":"ja","opmerking":"","begindatum":"","point_lng":"4.4607277700000623","point_lat":"51.231878005000056"},{"glascontainer_nr":"303","straatnaam":"SINT-FREDEGANDUSSTRAAT","huisnummer":"1","postcode":"2100","type":"duo glasbol","ondergrond_verhard":"ja","opmerking":"","begindatum":"","point_lng":"4.4590124960000708","point_lat":"51.230379726000081"},{"glascontainer_nr":"223","straatnaam":"BOSUIL","huisnummer":"77","postcode":"2100","type":"duo glasbol","ondergrond_verhard":"ja","opmerking":"","begindatum":"","point_lng":"4.4643093480000289","point_lat":"51.229756191000035"},{"glascontainer_nr":"291","straatnaam":"CONFORTALEI","huisnummer":"131","postcode":"2100","type":"duo glasbol","ondergrond_verhard":"ja","opmerking":"","begindatum":"","point_lng":"4.4570794950000732","point_lat":"51.228519346000041"},{"glascontainer_nr":"023","straatnaam":"BLIVENSSTRAAT","huisnummer":"54","postcode":"2100","type":"mono glasbol wit","ondergrond_verhard":"ja","opmerking":"","begindatum":"","point_lng":"4.4614072860000533","point_lat":"51.22733966900006"},{"glascontainer_nr":"170","straatnaam":"BLIVENSSTRAAT","huisnummer":"54","postcode":"2100","type":"mono glasbol groen","ondergrond_verhard":"ja","opmerking":"","begindatum":"","point_lng":"4.4614755590000641","point_lat":"51.227355192000061"},{"glascontainer_nr":"219","straatnaam":"HAVIKLAAN","huisnummer":"67","postcode":"2100","type":"duo glasbol","ondergrond_verhard":"ja","opmerking":"","begindatum":"","point_lng":"4.4869739490000597","point_lat":"51.224775813000065"},{"glascontainer_nr":"308","straatnaam":"KONINGSARENDLAAN","huisnummer":"48","postcode":"2100","type":"duo glasbol","ondergrond_verhard":"ja","opmerking":"","begindatum":"","point_lng":"4.4841711250000458","point_lat":"51.223991957000067"},{"glascontainer_nr":"225","straatnaam":"SINT-BARTHOLOMEUSSTRAAT","huisnummer":"118","postcode":"2100","type":"duo glasbol","ondergrond_verhard":"ja","opmerking":"","begindatum":"","point_lng":"4.4472280050000563","point_lat":"51.243093099000077"},{"glascontainer_nr":"230","straatnaam":"STRAALSTRAAT","huisnummer":"1","postcode":"2170","type":"duo glasbol","ondergrond_verhard":"ja","opmerking":"","begindatum":"","point_lng":"4.4532130420000726","point_lat":"51.241839581000079"},{"glascontainer_nr":"239","straatnaam":"DOKTER MAURICE TIMMERMANSLAAN","huisnummer":"15","postcode":"2170","type":"duo glasbol","ondergrond_verhard":"ja","opmerking":"","begindatum":"","point_lng":"4.4516520810000202","point_lat":"51.248525645000029"},{"glascontainer_nr":"084","straatnaam":"VICTOR ROOSENSPLEIN","huisnummer":"45","postcode":"2170","type":"mono glasbol wit","ondergrond_verhard":"ja","opmerking":"","begindatum":"","point_lng":"4.4551371500000414","point_lat":"51.24927371900003"},{"glascontainer_nr":"178","straatnaam":"VICTOR ROOSENSPLEIN","huisnummer":"45","postcode":"2170","type":"mono glasbol groen","ondergrond_verhard":"ja","opmerking":"","begindatum":"","point_lng":"4.4552253970000493","point_lat":"51.249248468000076"},{"glascontainer_nr":"388","straatnaam":"EETHUISSTRAAT","huisnummer":"120","postcode":"2170","type":"duo glasbol","ondergrond_verhard":"ja","opmerking":"","begindatum":"","point_lng":"4.4646658580000462","point_lat":"51.249593728000036"},{"glascontainer_nr":"002","straatnaam":"VAN PRAETLEI","huisnummer":"252","postcode":"2170","type":"mono glasbol wit","ondergrond_verhard":"ja","opmerking":"","begindatum":"","point_lng":"4.4636065230000668","point_lat":"51.253599499000075"},{"glascontainer_nr":"121","straatnaam":"VAN PRAETLEI","huisnummer":"252","postcode":"2170","type":"mono glasbol groen","ondergrond_verhard":"ja","opmerking":"","begindatum":"","point_lng":"4.4636548060000223","point_lat":"51.253654881000045"},{"glascontainer_nr":"338","straatnaam":"BREDABAAN","huisnummer":"783a","postcode":"2170","type":"duo glasbol","ondergrond_verhard":"ja","opmerking":"","begindatum":"","point_lng":"4.4570763590000411","point_lat":"51.251720553000041"},{"glascontainer_nr":"004","straatnaam":"BREDABAAN","huisnummer":"833","postcode":"2170","type":"mono glasbol wit","ondergrond_verhard":"ja","opmerking":"","begindatum":"","point_lng":"4.459888061000072","point_lat":"51.252781336000055"},{"glascontainer_nr":"188","straatnaam":"BREDABAAN","huisnummer":"833","postcode":"2170","type":"mono glasbol groen","ondergrond_verhard":"ja","opmerking":"","begindatum":"","point_lng":"4.4599603870000237","point_lat":"51.252821574000052"},{"glascontainer_nr":"413","straatnaam":"RINGLAAN","huisnummer":"37","postcode":"2170","type":"duo glasbol","ondergrond_verhard":"ja","opmerking":"","begindatum":"","point_lng":"4.4568805350000389","point_lat":"51.254249592000065"},{"glascontainer_nr":"331","straatnaam":"RINGLAAN","huisnummer":"110","postcode":"2170","type":"duo glasbol","ondergrond_verhard":"ja","opmerking":"","begindatum":"","point_lng":"4.4531157800000756","point_lat":"51.254423658000064"},{"glascontainer_nr":"248","straatnaam":"CATERSHOFLAAN","huisnummer":"52","postcode":"2170","type":"duo glasbol","ondergrond_verhard":"ja","opmerking":"","begindatum":"","point_lng":"4.4508343520000722","point_lat":"51.253578968000056"},{"glascontainer_nr":"450","straatnaam":"MELGESDREEF","huisnummer":"42","postcode":"2170","type":"duo glasbol","ondergrond_verhard":"ja","opmerking":"","begindatum":"","point_lng":"4.45855300300002","point_lat":"51.255623587000059"},{"glascontainer_nr":"360","straatnaam":"CATERSHOFLAAN","huisnummer":"151","postcode":"2170","type":"duo glasbol","ondergrond_verhard":"ja","opmerking":"","begindatum":"","point_lng":"4.4527845020000427","point_lat":"51.257637898000041"},{"glascontainer_nr":"426","straatnaam":"LANGE BREMSTRAAT","huisnummer":"70","postcode":"2170","type":"duo glasbol","ondergrond_verhard":"ja","opmerking":"staat aan achterzijde","begindatum":"","point_lng":"4.4505240090000484","point_lat":"51.259614247000059"},{"glascontainer_nr":"272","straatnaam":"FORTSTEENWEG","huisnummer":"120","postcode":"2170","type":"duo glasbol","ondergrond_verhard":"ja","opmerking":"","begindatum":"","point_lng":"4.4593477720000578","point_lat":"51.263753676000078"},{"glascontainer_nr":"265","straatnaam":"FORTSTEENWEG","huisnummer":"","postcode":"2170","type":"duo glasbol","ondergrond_verhard":"ja","opmerking":"sportveld","begindatum":"","point_lng":"4.4618456090000223","point_lat":"51.260119592000081"},{"glascontainer_nr":"438","straatnaam":"LAAGLANDLAAN","huisnummer":"307","postcode":"2170","type":"duo glasbol","ondergrond_verhard":"ja","opmerking":"","begindatum":"","point_lng":"4.4456339050000224","point_lat":"51.25927501700005"},{"glascontainer_nr":"454","straatnaam":"WINTERKONINGSTRAAT","huisnummer":"54","postcode":"2170","type":"duo glasbol","ondergrond_verhard":"ja","opmerking":"","begindatum":"","point_lng":"4.4422364470000275","point_lat":"51.258451047000051"},{"glascontainer_nr":"437","straatnaam":"LAARSEBAAN","huisnummer":"","postcode":"2170","type":"duo glasbol","ondergrond_verhard":"ja","opmerking":"aan sportvelden","begindatum":"","point_lng":"4.438522760000069","point_lat":"51.260780711000052"},{"glascontainer_nr":"271","straatnaam":"MAANTJESSTEENWEG","huisnummer":"92","postcode":"2170","type":"duo glasbol","ondergrond_verhard":"ja","opmerking":"","begindatum":"","point_lng":"4.4432349360000671","point_lat":"51.255327094000052"},{"glascontainer_nr":"376","straatnaam":"KORTE BREMSTRAAT","huisnummer":"2","postcode":"2170","type":"duo glasbol","ondergrond_verhard":"ja","opmerking":"","begindatum":"","point_lng":"4.4472508740000762","point_lat":"51.256452879000051"},{"glascontainer_nr":"089","straatnaam":"KROONPLEIN","huisnummer":"35","postcode":"2170","type":"mono glasbol wit","ondergrond_verhard":"ja","opmerking":"","begindatum":"","point_lng":"4.4483939420000524","point_lat":"51.251633502000061"},{"glascontainer_nr":"157","straatnaam":"KROONPLEIN","huisnummer":"35","postcode":"2170","type":"mono glasbol groen","ondergrond_verhard":"ja","opmerking":"","begindatum":"","point_lng":"4.4484387280000419","point_lat":"51.251641147000043"},{"glascontainer_nr":"346","straatnaam":"TERLINDENHOFSTRAAT","huisnummer":"296","postcode":"2170","type":"duo glasbol","ondergrond_verhard":"ja","opmerking":"","begindatum":"","point_lng":"4.443716241000061","point_lat":"51.250193448000061"},{"glascontainer_nr":"347","straatnaam":"RODELOOPSTRAAT","huisnummer":"23","postcode":"2170","type":"duo glasbol","ondergrond_verhard":"ja","opmerking":"","begindatum":"","point_lng":"4.4412691650000511","point_lat":"51.250955679000072"},{"glascontainer_nr":"090","straatnaam":"MAANTJESSTEENWEG","huisnummer":"133","postcode":"2170","type":"mono glasbol wit","ondergrond_verhard":"ja","opmerking":"","begindatum":"","point_lng":"4.4379442300000278","point_lat":"51.255179235000071"},{"glascontainer_nr":"200","straatnaam":"MAANTJESSTEENWEG","huisnummer":"133","postcode":"2170","type":"mono glasbol groen","ondergrond_verhard":"ja","opmerking":"","begindatum":"","point_lng":"4.4379443070000661","point_lat":"51.255229605000068"},{"glascontainer_nr":"433","straatnaam":"ZWAANTJESLEI","huisnummer":"93","postcode":"2170","type":"duo glasbol","ondergrond_verhard":"ja","opmerking":"","begindatum":"","point_lng":"4.4502032780000604","point_lat":"51.260410805000049"},{"glascontainer_nr":"229","straatnaam":"VAN HEYBEECKSTRAAT","huisnummer":"9","postcode":"2170","type":"duo glasbol","ondergrond_verhard":"ja","opmerking":"","begindatum":"","point_lng":"4.4486167080000314","point_lat":"51.247144879000075"},{"glascontainer_nr":"439","straatnaam":"WULPSTRAAT","huisnummer":"41","postcode":"2170","type":"duo glasbol","ondergrond_verhard":"ja","opmerking":"","begindatum":"","point_lng":"4.4317410690000543","point_lat":"51.259055507000028"},{"glascontainer_nr":"335","straatnaam":"BERGEN OP ZOOMLAAN","huisnummer":"41","postcode":"2170","type":"duo glasbol","ondergrond_verhard":"ja","opmerking":"","begindatum":"","point_lng":"4.4275515720000271","point_lat":"51.249979518000032"},{"glascontainer_nr":"525","straatnaam":"NOORDERLAAN","huisnummer":"29","postcode":"2030","type":"duo glasbol","ondergrond_verhard":"ja","opmerking":"","begindatum":"","point_lng":"4.4196796430000518","point_lat":"51.242667570000037"},{"glascontainer_nr":"522","straatnaam":"NOORDERLAAN","huisnummer":"100","postcode":"2030","type":"duo glasbol","ondergrond_verhard":"ja","opmerking":"","begindatum":"","point_lng":"4.4207553410000742","point_lat":"51.243990611000072"},{"glascontainer_nr":"527","straatnaam":"GROENENDAALLAAN","huisnummer":"348","postcode":"2030","type":"duo glasbol","ondergrond_verhard":"ja","opmerking":"","begindatum":"","point_lng":"4.4220218880000743","point_lat":"51.245136260000038"},{"glascontainer_nr":"488","straatnaam":"CANADALAAN","huisnummer":"154","postcode":"2030","type":"duo glasbol","ondergrond_verhard":"ja","opmerking":"","begindatum":"","point_lng":"4.4216538340000398","point_lat":"51.250250720000054"},{"glascontainer_nr":"528","straatnaam":"COLUMBIASTRAAT","huisnummer":"112","postcode":"2030","type":"duo glasbol","ondergrond_verhard":"ja","opmerking":"","begindatum":"","point_lng":"4.4231773610000573","point_lat":"51.253166758000077"},{"glascontainer_nr":"512","straatnaam":"CANADALAAN","huisnummer":"254","postcode":"2030","type":"duo glasbol","ondergrond_verhard":"ja","opmerking":"","begindatum":"","point_lng":"4.4218555470000638","point_lat":"51.256016684000031"},{"glascontainer_nr":"507","straatnaam":"LIVERPOOLLAAN","huisnummer":"10","postcode":"2030","type":"duo glasbol","ondergrond_verhard":"ja","opmerking":"","begindatum":"","point_lng":"4.4235757050000757","point_lat":"51.256807497000068"},{"glascontainer_nr":"509","straatnaam":"GENERAAL SIMONDSLAAN","huisnummer":"8","postcode":"2030","type":"duo glasbol","ondergrond_verhard":"ja","opmerking":"","begindatum":"","point_lng":"4.4214934450000669","point_lat":"51.259485468000037"},{"glascontainer_nr":"517","straatnaam":"PHILADELPHIASTRAAT","huisnummer":"36","postcode":"2030","type":"duo glasbol","ondergrond_verhard":"ja","opmerking":"","begindatum":"","point_lng":"4.4258165550000399","point_lat":"51.260200112000064"},{"glascontainer_nr":"165","straatnaam":"NOORDERLAAN","huisnummer":"500","postcode":"2030","type":"mono glasbol groen","ondergrond_verhard":"ja","opmerking":"containerpark","begindatum":"","point_lng":"4.4193918340000664","point_lat":"51.262882594000075"},{"glascontainer_nr":"151","straatnaam":"NOORDERLAAN","huisnummer":"500","postcode":"2030","type":"mono glasbol groen","ondergrond_verhard":"ja","opmerking":"containerpark","begindatum":"","point_lng":"4.4194395950000285","point_lat":"51.262880083000027"},{"glascontainer_nr":"077","straatnaam":"NOORDERLAAN","huisnummer":"500","postcode":"2030","type":"mono glasbol wit","ondergrond_verhard":"ja","opmerking":"containerpark","begindatum":"","point_lng":"4.419387812000025","point_lat":"51.262847640000075"},{"glascontainer_nr":"065","straatnaam":"NOORDERLAAN","huisnummer":"500","postcode":"2030","type":"mono glasbol wit","ondergrond_verhard":"ja","opmerking":"containerpark","begindatum":"","point_lng":"4.4194395580000219","point_lat":"51.26284761800008"},{"glascontainer_nr":"403","straatnaam":"RENAAT VEREMANSSTRAAT","huisnummer":"8","postcode":"2030","type":"duo glasbol","ondergrond_verhard":"ja","opmerking":"","begindatum":"","point_lng":"4.4175383730000704","point_lat":"51.268833265000069"},{"glascontainer_nr":"634","straatnaam":"PATER STRACKESTRAAT","huisnummer":"10","postcode":"2030","type":"ondergrondse duo","ondergrond_verhard":"ja","opmerking":"","begindatum":"","point_lng":"4.4143697910000697","point_lat":"51.270218417000081"},{"glascontainer_nr":"482","straatnaam":"HERMAN VOSSTRAAT","huisnummer":"1","postcode":"2030","type":"duo glasbol","ondergrond_verhard":"ja","opmerking":"","begindatum":"","point_lng":"4.411667115000057","point_lat":"51.271924917000035"},{"glascontainer_nr":"350","straatnaam":"FERDINAND VERBIESTSTRAAT","huisnummer":"71","postcode":"2030","type":"duo glasbol","ondergrond_verhard":"ja","opmerking":"","begindatum":"","point_lng":"4.4164955270000519","point_lat":"51.272813119000034"},{"glascontainer_nr":"515","straatnaam":"EDUARD VAN BENEDENSTRAAT","huisnummer":"4","postcode":"2030","type":"duo glasbol","ondergrond_verhard":"ja","opmerking":"","begindatum":"","point_lng":"4.4110012160000451","point_lat":"51.274144758000034"},{"glascontainer_nr":"349","straatnaam":"KRUISBOOGSTRAAT","huisnummer":"29","postcode":"2030","type":"duo glasbol","ondergrond_verhard":"ja","opmerking":"","begindatum":"","point_lng":"4.4094589130000372","point_lat":"51.277640044000066"},{"glascontainer_nr":"469","straatnaam":"TWEEKRONENSTRAAT","huisnummer":"106","postcode":"2030","type":"duo glasbol","ondergrond_verhard":"ja","opmerking":"","begindatum":"","point_lng":"4.4099252510000611","point_lat":"51.282153790000052"},{"glascontainer_nr":"490","straatnaam":"WILGEHOEVESTRAAT","huisnummer":"29","postcode":"2180","type":"duo glasbol","ondergrond_verhard":"ja","opmerking":"","begindatum":"","point_lng":"4.4149232310000457","point_lat":"51.285397468000042"},{"glascontainer_nr":"353","straatnaam":"VIC HEYMANSTRAAT","huisnummer":"38","postcode":"2180","type":"duo glasbol","ondergrond_verhard":"ja","opmerking":"","begindatum":"","point_lng":"4.418645146000074","point_lat":"51.28378332300008"},{"glascontainer_nr":"182","straatnaam":"KLOOSTERSTRAAT","huisnummer":"84","postcode":"2180","type":"mono glasbol groen","ondergrond_verhard":"ja","opmerking":"","begindatum":"","point_lng":"4.4170438480000485","point_lat":"51.282504349000078"},{"glascontainer_nr":"083","straatnaam":"KLOOSTERSTRAAT","huisnummer":"84","postcode":"2180","type":"mono glasbol wit","ondergrond_verhard":"ja","opmerking":"","begindatum":"","point_lng":"4.41699688500006","point_lat":"51.28249530800008"},{"glascontainer_nr":"179","straatnaam":"GEESTENSPOOR","huisnummer":"5","postcode":"2180","type":"mono glasbol groen","ondergrond_verhard":"ja","opmerking":"","begindatum":"","point_lng":"4.420606805000034","point_lat":"51.281103101000042"},{"glascontainer_nr":"081","straatnaam":"GEESTENSPOOR","huisnummer":"5","postcode":"2180","type":"mono glasbol wit","ondergrond_verhard":"ja","opmerking":"","begindatum":"","point_lng":"4.4206537510000317","point_lat":"51.281098550000081"},{"glascontainer_nr":"526","straatnaam":"KRISTUS-KONINGPLEIN","huisnummer":"6","postcode":"2180","type":"duo glasbol","ondergrond_verhard":"ja","opmerking":"","begindatum":"","point_lng":"4.4194224580000423","point_lat":"51.278036974000031"},{"glascontainer_nr":"529","straatnaam":"GROOT HAGELKRUIS","huisnummer":"6","postcode":"2180","type":"duo glasbol","ondergrond_verhard":"ja","opmerking":"","begindatum":"","point_lng":"4.4168659080000339","point_lat":"51.278176226000028"},{"glascontainer_nr":"358","straatnaam":"EDISONLAAN","huisnummer":"1","postcode":"2030","type":"duo glasbol","ondergrond_verhard":"ja","opmerking":"","begindatum":"","point_lng":"4.4120925130000614","point_lat":"51.290082333000043"},{"glascontainer_nr":"391","straatnaam":"GROTEHONDSTRAAT","huisnummer":"1","postcode":"2018","type":"duo glasbol","ondergrond_verhard":"ja","opmerking":"","begindatum":"","point_lng":"4.4265565850000712","point_lat":"51.206179831000043"},{"glascontainer_nr":"640","straatnaam":"DAGERAADPLAATS","huisnummer":"5","postcode":"2018","type":"ondergrondse duo","ondergrond_verhard":"ja","opmerking":"","begindatum":"","point_lng":"4.4306296180000686","point_lat":"51.207179640000049"},{"glascontainer_nr":"155","straatnaam":"KORTE ALTAARSTRAAT","huisnummer":"1","postcode":"2018","type":"mono glasbol groen","ondergrond_verhard":"ja","opmerking":"","begindatum":"","point_lng":"4.43095364200002","point_lat":"51.207060001000059"},{"glascontainer_nr":"037","straatnaam":"KORTE ALTAARSTRAAT","huisnummer":"1","postcode":"2018","type":"mono glasbol wit","ondergrond_verhard":"ja","opmerking":"","begindatum":"","point_lng":"4.4309968480000634","point_lat":"51.207043682000062"},{"glascontainer_nr":"470","straatnaam":"DOOR VERSTRAETEPLAATS","huisnummer":"1","postcode":"2018","type":"duo glasbol","ondergrond_verhard":"ja","opmerking":"","begindatum":"","point_lng":"4.4323372190000327","point_lat":"51.207897108000054"},{"glascontainer_nr":"467","straatnaam":"VANDENPEEREBOOMSTRAAT","huisnummer":"100","postcode":"2140","type":"duo glasbol","ondergrond_verhard":"ja","opmerking":"<Null>","begindatum":"","point_lng":"4.4363333020000368","point_lat":"51.209307688000081"},{"glascontainer_nr":"368","straatnaam":"KOXPLEIN","huisnummer":"","postcode":"2140","type":"duo glasbol","ondergrond_verhard":"ja","opmerking":"","begindatum":"","point_lng":"4.4339411380000229","point_lat":"51.211282801000038"},{"glascontainer_nr":"399","straatnaam":"BLEEKHOFSTRAAT","huisnummer":"119","postcode":"2140","type":"duo glasbol","ondergrond_verhard":"ja","opmerking":"","begindatum":"","point_lng":"4.4323721740000224","point_lat":"51.211453860000063"},