{"speelterrein":[{"id":"AN\/00\/01","naam":"Waterpoortpark","straat":"Vlaamsekaai","huisnummer":"over 71","postcode":"2000","district":"ANTWERPEN","begindatum":"1995-01-01T00:00:00","toestellen":"","financiering":"Boven lokaal","opmerking":"Heraanleg in 11\/2011","x_coord":"151288.111","y_coord":"210840.45800000001","point_lng":"4.387195398000074","point_lat":"51.20752691000007"},{"id":"AN\/00\/05","naam":"Regenboogpark","straat":"Waalsekaai","huisnummer":"over 33","postcode":"2000","district":"ANTWERPEN","begindatum":"2007-05-02T00:00:00","toestellen":"","financiering":"Lokaal","opmerking":"Grondwerken uitgevoerd door Verbruggen","x_coord":"151679.09099999999","y_coord":"211347.88099999999","point_lng":"4.3927924820000612","point_lat":"51.212086783000075"},{"id":"AN\/00\/02","naam":"Sint Andriesplaats","straat":"Sint-Andriesplaats","huisnummer":"17","postcode":"2000","district":"ANTWERPEN","begindatum":"2011-04-04T00:00:00","toestellen":"","financiering":"Lokaal","opmerking":"","x_coord":"151957.73999999999","y_coord":"211678.43799999999","point_lng":"4.3967819810000606","point_lat":"51.215057048000062"},{"id":"AN\/00\/06","naam":"Prekerstraat","straat":"Prekersstraat","huisnummer":"achter 8","postcode":"2000","district":"ANTWERPEN","begindatum":"1995-01-01T00:00:00","toestellen":"","financiering":"Lokaal","opmerking":"Heraanleg voorzien 2011","x_coord":"151861.65400000001","y_coord":"211538.63399999999","point_lng":"4.3954060930000765","point_lat":"51.213800764000041"},{"id":"AN\/00\/03","naam":"Zirkstraat","straat":"Zirkstraat","huisnummer":"over 21","postcode":"2000","district":"ANTWERPEN","begindatum":"1996-01-01T00:00:00","toestellen":"","financiering":"Lokaal","opmerking":"","x_coord":"152226.679","y_coord":"212558.652","point_lng":"4.4006365290000531","point_lat":"51.222967750000066"},{"id":"AN\/03\/09","naam":"Casimiro","straat":"Noorderlaan","huisnummer":"","postcode":"2030","district":"ANTWERPEN","begindatum":"2005-03-24T00:00:00","toestellen":"","financiering":"Lokaal","opmerking":"","x_coord":"153643.45199999999","y_coord":"215278.747","point_lng":"4.4209441550000292","point_lat":"51.247409474000051"},{"id":"BZ\/04\/04","naam":"Hagelbergbos","straat":"Hagelberg","huisnummer":"over 5","postcode":"2040","district":"BEZALI","begindatum":"2000-05-01T00:00:00","toestellen":"","financiering":"Lokaal","opmerking":"","x_coord":"147048.783","y_coord":"226187.63","point_lng":"4.3264125950000221","point_lat":"51.345464823000043"},{"id":"BZ\/04\/07","naam":"Heiblokken","straat":"Heiblokken","huisnummer":"naast 8","postcode":"2040","district":"BEZALI","begindatum":"2000-12-01T00:00:00","toestellen":"","financiering":"Lokaal","opmerking":"","x_coord":"147877.46299999999","y_coord":"226430.459","point_lng":"4.3383041410000374","point_lat":"51.347650876000046"},{"id":"AN\/05\/11","naam":"Multatuliplein","straat":"Multatuliplein","huisnummer":"","postcode":"2050","district":"ANTWERPEN","begindatum":"2000-04-01T00:00:00","toestellen":"","financiering":"Lokaal","opmerking":"","x_coord":"151103.63200000001","y_coord":"212520.807","point_lng":"4.3845611850000523","point_lat":"51.222631000000035"},{"id":"AN\/05\/09","naam":"Seniorencentrum","straat":"Blancefloerlaan","huisnummer":"9","postcode":"2050","district":"ANTWERPEN","begindatum":"1999-01-01T00:00:00","toestellen":"","financiering":"Lokaal","opmerking":"","x_coord":"148706.61600000001","y_coord":"212511.976","point_lng":"4.3502507370000671","point_lat":"51.222551604000046"},{"id":"AN\/05\/08","naam":"Constantijn Huygensstraat","straat":"Constantijn Huygensstraat","huisnummer":"over 2","postcode":"2050","district":"ANTWERPEN","begindatum":"1998-01-01T00:00:00","toestellen":"","financiering":"Lokaal","opmerking":"","x_coord":"151340.954","y_coord":"213676.72500000001","point_lng":"4.3879627370000662","point_lat":"51.233020282000041"},{"id":"AN\/05\/01","naam":"Robinsontuin","straat":"Kastanjedreef","huisnummer":"22","postcode":"2050","district":"ANTWERPEN","begindatum":"1996-01-01T00:00:00","toestellen":"","financiering":"Boven lokaal","opmerking":"","x_coord":"151388.413","y_coord":"213893.486","point_lng":"4.3886430930000415","point_lat":"51.234968486000071"},{"id":"AN\/05\/15","naam":"Willem Klooslaan","straat":"Willem Klooslaan","huisnummer":"","postcode":"2050","district":"ANTWERPEN","begindatum":"2006-02-20T00:00:00","toestellen":"","financiering":"Lokaal","opmerking":"","x_coord":"150487.03599999999","y_coord":"213206.10200000001","point_lng":"4.3757364270000494","point_lat":"51.228791638000075"},{"id":"AN\/06\/10","naam":"Kerkstraat","straat":"Kerkstraat","huisnummer":"","postcode":"2060","district":"ANTWERPEN","begindatum":"2003-01-01T00:00:00","toestellen":"","financiering":"Lokaal","opmerking":"","x_coord":"154358.217","y_coord":"212094.476","point_lng":"4.4311415120000675","point_lat":"51.218783059000032"},{"id":"HO\/66\/06","naam":"Veerdamlaan","straat":"Veerdamlaan","huisnummer":"over 2","postcode":"2660","district":"HOBOKEN","begindatum":"1997-05-01T00:00:00","toestellen":"","financiering":"Lokaal","opmerking":"","x_coord":"148087.81","y_coord":"208349.66200000001","point_lng":"4.3414141790000258","point_lat":"51.185137203000068"},{"id":"HO\/66\/10","naam":"Kapelstraat","straat":"Kapelstraat","huisnummer":"133","postcode":"2660","district":"HOBOKEN","begindatum":"1998-01-01T00:00:00","toestellen":"","financiering":"Lokaal","opmerking":"","x_coord":"148323.59599999999","y_coord":"207091.63099999999","point_lng":"4.3447919640000237","point_lat":"51.173830036000027"},{"id":"AN\/06\/01","naam":"Stuivenbergplein","straat":"Stuivenbergplein","huisnummer":"over 64","postcode":"2060","district":"ANTWERPEN","begindatum":"2002-10-01T00:00:00","toestellen":"","financiering":"Boven lokaal","opmerking":"","x_coord":"154259.163","y_coord":"212942.79399999999","point_lng":"4.4297339680000505","point_lat":"51.226408826000068"},{"id":"DE\/10\/06","naam":"Ruimtevaartlaan","straat":"Ruimtevaartlaan","huisnummer":"over 27","postcode":"2100","district":"DEURNE","begindatum":"2010-07-02T00:00:00","toestellen":"","financiering":"Lokaal","opmerking":"","x_coord":"156129.356","y_coord":"209366.88099999999","point_lng":"4.4564444060000596","point_lat":"51.194249863000039"},{"id":"DE\/10\/02","naam":"Bosuil","straat":"Bosuil","huisnummer":"over 138D","postcode":"2100","district":"DEURNE","begindatum":"1999-05-01T00:00:00","toestellen":"","financiering":"Lokaal","opmerking":"","x_coord":"156638.48199999999","y_coord":"213215.89199999999","point_lng":"4.4637989380000249","point_lat":"51.228840693000052"},{"id":"DE\/10\/08","naam":"Van Duyststraat","straat":"Van Duyststraat","huisnummer":"over 265","postcode":"2100","district":"DEURNE","begindatum":"1999-01-01T00:00:00","toestellen":"","financiering":"Lokaal","opmerking":"","x_coord":"155888.61199999999","y_coord":"213649.76999999999","point_lng":"4.4530711650000399","point_lat":"51.232748800000081"},{"id":"DE\/10\/11","naam":"Tweemontstraat","straat":"Tweemontstraat","huisnummer":"thv 294","postcode":"2100","district":"DEURNE","begindatum":"2003-01-01T00:00:00","toestellen":"","financiering":"Lokaal","opmerking":"","x_coord":"155342.98699999999","y_coord":"213819.42600000001","point_lng":"4.4452620350000416","point_lat":"51.234279123000078"},{"id":"DE\/10\/04","naam":"Van Deynseplein","straat":"Van Deynsestraat","huisnummer":"58","postcode":"2100","district":"DEURNE","begindatum":"2005-08-18T00:00:00","toestellen":"","financiering":"Lokaal","opmerking":"","x_coord":"155753.495","y_coord":"213355.08799999999","point_lng":"4.4511319510000362","point_lat":"51.230101478000051"},{"id":"BO\/14\/09","naam":"Jan Borluutplein","straat":"Jan Borluutplein","huisnummer":"","postcode":"2140","district":"BORGERHOUT","begindatum":"2001-07-01T00:00:00","toestellen":"","financiering":"Lokaal","opmerking":"","x_coord":"155072.66099999999","y_coord":"212216.85800000001","point_lng":"4.4413688360000378","point_lat":"51.219877129000054"},{"id":"BO\/14\/05","naam":"Weerstandlaan","straat":"Weerstandlaan","huisnummer":"rechts van","postcode":"2140","district":"BORGERHOUT","begindatum":"1996-01-01T00:00:00","toestellen":"","financiering":"Lokaal","opmerking":"","x_coord":"156213.462","y_coord":"211644.057","point_lng":"4.4576871290000213","point_lat":"51.214717230000076"},{"id":"BO\/14\/04","naam":"Boelaerpark","straat":"Cruyslei","huisnummer":"","postcode":"2140","district":"BORGERHOUT","begindatum":"2002-06-01T00:00:00","toestellen":"","financiering":"Boven lokaal","opmerking":"","x_coord":"155946.32399999999","y_coord":"209942.01199999999","point_lng":"4.4538356810000437","point_lat":"51.199421357000062"},{"id":"BO\/14\/13","naam":"Lode cantensstraat","straat":"Lode Cantensstraat","huisnummer":"","postcode":"2140","district":"BORGERHOUT","begindatum":"2004-11-16T00:00:00","toestellen":"","financiering":"Lokaal","opmerking":"","x_coord":"155389.345","y_coord":"210555.054","point_lng":"4.4458764110000288","point_lat":"51.204937213000051"},{"id":"BO\/14\/02","naam":"Krugerpark","straat":"Krugerplein","huisnummer":"over 41","postcode":"2140","district":"BORGERHOUT","begindatum":"2005-07-14T00:00:00","toestellen":"","financiering":"Lokaal","opmerking":"Heraanleg in 12\/2011","x_coord":"155045.73999999999","y_coord":"211802.38500000001","point_lng":"4.4409776430000534","point_lat":"51.216151919000026"},{"id":"BO\/14\/03","naam":"Joe Englishstraat","straat":"Joe Englishstraat","huisnummer":"tss 44 - 4","postcode":"2140","district":"BORGERHOUT","begindatum":"1996-01-01T00:00:00","toestellen":"","financiering":"Lokaal","opmerking":"","x_coord":"155481.147","y_coord":"211237.54800000001","point_lng":"4.4472004350000702","point_lat":"51.211070889000041"},{"id":"ME\/17\/14","naam":"Runcvoort","straat":"Runcvoort","huisnummer":"over 47","postcode":"2170","district":"MERKSEM","begindatum":"1999-11-01T00:00:00","toestellen":"","financiering":"Lokaal","opmerking":"","x_coord":"154873.91500000001","y_coord":"215190.35399999999","point_lng":"4.4385649370000237","point_lat":"51.246605694000039"},{"id":"ME\/17\/01","naam":"Lindeboomplein","straat":"Lindeboomplein","huisnummer":"","postcode":"2170","district":"MERKSEM","begindatum":"2008-04-11T00:00:00","toestellen":"","financiering":"Lokaal","opmerking":"","x_coord":"155433.38200000001","y_coord":"216660.09","point_lng":"4.4465995980000343","point_lat":"51.259811002000049"},{"id":"ME\/17\/11","naam":"Markiezenhof","straat":"Markiezenhof","huisnummer":"tss 1-3","postcode":"2170","district":"MERKSEM","begindatum":"2002-01-01T00:00:00","toestellen":"","financiering":"Lokaal","opmerking":"","x_coord":"154184.53599999999","y_coord":"215456.06599999999","point_lng":"4.4286953480000761","point_lat":"51.248999514000047"},{"id":"ME\/17\/06","naam":"Taxandriastraat","straat":"Taxandriastraat","huisnummer":"over 44","postcode":"2170","district":"MERKSEM","begindatum":"1996-01-01T00:00:00","toestellen":"","financiering":"Lokaal","opmerking":"","x_coord":"154541.008","y_coord":"214399.55600000001","point_lng":"4.4337871990000508","point_lat":"51.239500521000082"},{"id":"ME\/17\/03","naam":"Leiebos","straat":"Lange Bremstraat","huisnummer":"achter 151","postcode":"2170","district":"MERKSEM","begindatum":"1996-01-01T00:00:00","toestellen":"","financiering":"Lokaal","opmerking":"","x_coord":"156154.73499999999","y_coord":"216291.20999999999","point_lng":"4.4569267880000325","point_lat":"51.256488053000055"},{"id":"EK\/18\/02","naam":"De Bund","straat":"Bund","huisnummer":"hoek","postcode":"2180","district":"EKEREN","begindatum":"2004-10-18T00:00:00","toestellen":"","financiering":"Lokaal","opmerking":"","x_coord":"153977.56099999999","y_coord":"219594.90100000001","point_lng":"4.425777614000026","point_lat":"51.286201799000025"},{"id":"EK\/18\/09","naam":"Vazallaan","straat":"Vazallaan","huisnummer":"achter 11","postcode":"2180","district":"EKEREN","begindatum":"1996-01-01T00:00:00","toestellen":"","financiering":"Lokaal","opmerking":"","x_coord":"155232.69699999999","y_coord":"218132.10800000001","point_lng":"4.4437463970000408","point_lat":"51.273043725000036"},{"id":"EK\/18\/08","naam":"Willebeeklaan","straat":"Willebeeklaan","huisnummer":"achter 26","postcode":"2180","district":"EKEREN","begindatum":"1996-01-01T00:00:00","toestellen":"","financiering":"Lokaal","opmerking":"","x_coord":"155122.16200000001","y_coord":"218422.008","point_lng":"4.4421666850000747","point_lat":"51.27565041500003"},{"id":"EK\/18\/03","naam":"Hendrik Kanorastraat","straat":"Hendrik Kanorastraat","huisnummer":"","postcode":"2180","district":"EKEREN","begindatum":"2001-06-01T00:00:00","toestellen":"","financiering":"Lokaal","opmerking":"","x_coord":"154538.815","y_coord":"219789.75","point_lng":"4.4338247680000222","point_lat":"51.287948897000035"},{"id":"EK\/18\/04","naam":"Van de Weyngaertplein","straat":"Van De Weyngaertplein","huisnummer":"over 28","postcode":"2180","district":"EKEREN","begindatum":"1996-01-01T00:00:00","toestellen":"","financiering":"Lokaal","opmerking":"","x_coord":"154837.51300000001","y_coord":"220421.04300000001","point_lng":"4.4381148850000613","point_lat":"51.293620571000076"},{"id":"BE\/60\/14","naam":"Schelpstraat","straat":"Schelpstraat","huisnummer":"links nr 2","postcode":"2600","district":"BERCHEM","begindatum":"2001-07-01T00:00:00","toestellen":"","financiering":"Lokaal","opmerking":"","x_coord":"154352.17600000001","y_coord":"210148.818","point_lng":"4.4310312130000398","point_lat":"51.201294691000044"},{"id":"BE\/60\/12","naam":"Hof van Nauwelaerts","straat":"Lodewijk Van Berckenlaan","huisnummer":"over 131","postcode":"2600","district":"BERCHEM","begindatum":"2000-02-01T00:00:00","toestellen":"","financiering":"Lokaal","opmerking":"","x_coord":"155255.46900000001","y_coord":"209741.755","point_lng":"4.4439488750000464","point_lat":"51.197628162000058"},{"id":"DE\/10\/10","naam":"Arenaweide","straat":"Arenaplein","huisnummer":"56","postcode":"2100","district":"DEURNE","begindatum":"2001-04-01T00:00:00","toestellen":"","financiering":"Boven lokaal","opmerking":"","x_coord":"156352.43700000001","y_coord":"210695.04699999999","point_lng":"4.4596591920000606","point_lat":"51.206185588000039"},{"id":"HO\/66\/08","naam":"Harold Rocherstraat","straat":"Harold Rosherstraat","huisnummer":"","postcode":"2660","district":"HOBOKEN","begindatum":"1997-06-01T00:00:00","toestellen":"","financiering":"Lokaal","opmerking":"","x_coord":"148418.72200000001","y_coord":"208056.87599999999","point_lng":"4.3461481930000332","point_lat":"51.182506437000029"},{"id":"ME\/17\/12","naam":"Krokusstraat","straat":"Krokusstraat","huisnummer":"achter 2 t","postcode":"2170","district":"MERKSEM","begindatum":"1996-01-01T00:00:00","toestellen":"","financiering":"Lokaal","opmerking":"","x_coord":"154814.16399999999","y_coord":"215411.29300000001","point_lng":"4.4377122250000411","point_lat":"51.248592071000076"},{"id":"ME\/17\/15","naam":"Rode Loop","straat":"Rodeloopstraat","huisnummer":"2","postcode":"2170","district":"MERKSEM","begindatum":"2000-02-01T00:00:00","toestellen":"","financiering":"Lokaal","opmerking":"","x_coord":"155098.584","y_coord":"215591.856","point_lng":"4.4417882180000561","point_lat":"51.25021253500006"},{"id":"ME\/17\/08","naam":"Winterling","straat":"Winterling","huisnummer":"46 t\/m 66","postcode":"2170","district":"MERKSEM","begindatum":"1996-01-01T00:00:00","toestellen":"","financiering":"Lokaal","opmerking":"","x_coord":"154224.90900000001","y_coord":"214549.45000000001","point_lng":"4.4292627620000644","point_lat":"51.240850268000031"},{"id":"BE\/60\/10","naam":"Apolloplein","straat":"Apollostraat","huisnummer":"over 53","postcode":"2600","district":"BERCHEM","begindatum":"1997-01-01T00:00:00","toestellen":"","financiering":"Lokaal","opmerking":"","x_coord":"155394.77100000001","y_coord":"209821.31599999999","point_lng":"4.4459429530000421","point_lat":"51.198341987000049"},{"id":"WI\/61\/14","naam":"Pierebeekstraat","straat":"Pierebeekstraat","huisnummer":"over 16","postcode":"2610","district":"WILRIJK","begindatum":"2001-04-01T00:00:00","toestellen":"","financiering":"Lokaal","opmerking":"","x_coord":"151614.01199999999","y_coord":"207814.44899999999","point_lng":"4.3918445660000316","point_lat":"51.180326785000034"},{"id":"WI\/61\/10","naam":"Frans Nagelsplein","straat":"Frans Nagelsplein","huisnummer":"over 2","postcode":"2610","district":"WILRIJK","begindatum":"2001-03-01T00:00:00","toestellen":"","financiering":"Lokaal","opmerking":"","x_coord":"151601.677","y_coord":"207102.51999999999","point_lng":"4.3916648480000617","point_lat":"51.173927613000046"},{"id":"WI\/61\/08","naam":"Edenplein","straat":"Edenplein","huisnummer":"over 17","postcode":"2610","district":"WILRIJK","begindatum":"1996-01-01T00:00:00","toestellen":"","financiering":"Lokaal","opmerking":"","x_coord":"151452.995","y_coord":"204791.64799999999","point_lng":"4.3895290460000638","point_lat":"51.153156537000029"},{"id":"WI\/61\/07","naam":"Egied Segerslaan","straat":"Egied Segerslaan","huisnummer":"rechts van","postcode":"2610","district":"WILRIJK","begindatum":"1999-05-01T00:00:00","toestellen":"","financiering":"Lokaal","opmerking":"","x_coord":"150498.20600000001","y_coord":"207399.04999999999","point_lng":"4.3758869140000343","point_lat":"51.176595167000073"},{"id":"WI\/61\/06","naam":"Rooiboslaan","straat":"Rooiboslaan","huisnummer":"over snijp","postcode":"2610","district":"WILRIJK","begindatum":"1996-01-01T00:00:00","toestellen":"","financiering":"Lokaal","opmerking":"","x_coord":"150942.62","y_coord":"207355.51800000001","point_lng":"4.382241782000051","point_lat":"51.176203254000029"},{"id":"WI\/61\/05","naam":"Planetariumlaan","straat":"Planetariumlaan","huisnummer":"over 149","postcode":"2610","district":"WILRIJK","begindatum":"1996-01-01T00:00:00","toestellen":"","financiering":"Lokaal","opmerking":"Heraanleg op 10-11-2011","x_coord":"151502.421","y_coord":"205026.171","point_lng":"4.3902364960000568","point_lat":"51.155264443000078"},{"id":"WI\/61\/02","naam":"Sint Camillusstraat","straat":"Sint-Camillusstraat","huisnummer":"over 71 -","postcode":"2610","district":"WILRIJK","begindatum":"1996-01-01T00:00:00","toestellen":"","financiering":"Lokaal","opmerking":"","x_coord":"152032.14799999999","y_coord":"206788.49299999999","point_lng":"4.3978182720000518","point_lat":"51.171103540000047"},{"id":"WI\/61\/03","naam":"Rendierstraat","straat":"Rendierstraat","huisnummer":"naast 21","postcode":"2610","district":"WILRIJK","begindatum":"1996-01-01T00:00:00","toestellen":"","financiering":"Lokaal","opmerking":"","x_coord":"153692.40100000001","y_coord":"207226.375","point_lng":"4.4215611710000644","point_lat":"51.175030985000035"},{"id":"WI\/61\/04","naam":"Boeksveldstraat","straat":"Boeksveldstraat","huisnummer":"over 32 \/","postcode":"2610","district":"WILRIJK","begindatum":"1999-09-01T00:00:00","toestellen":"","financiering":"Lokaal","opmerking":"","x_coord":"151430.74400000001","y_coord":"206071.65700000001","point_lng":"4.3892163800000503","point_lat":"51.164662098000065"},{"id":"WI\/61\/09","naam":"Bernard de Pooterstraat","straat":"Bernard De Pooterstraat","huisnummer":"18","postcode":"2610","district":"WILRIJK","begindatum":"1999-04-01T00:00:00","toestellen":"","financiering":"Lokaal","opmerking":"","x_coord":"150838.97200000001","y_coord":"206497.359","point_lng":"4.3807574630000659","point_lat":"51.168489811000029"},{"id":"HO\/66\/09","naam":"Cooperatielaan","straat":"Co\u00f6peratielaan","huisnummer":"over 13","postcode":"2660","district":"HOBOKEN","begindatum":"1997-04-01T00:00:00","toestellen":"","financiering":"Lokaal","opmerking":"","x_coord":"150004.84","y_coord":"207358.97500000001","point_lng":"4.368831913000065","point_lat":"51.176235242000075"},{"id":"AN\/00\/04","naam":"Lombardenvest","straat":"Lombardenvest","huisnummer":"","postcode":"2000","district":"ANTWERPEN","begindatum":"2011-04-01T00:00:00","toestellen":"","financiering":"Lokaal","opmerking":"","x_coord":"152456.226","y_coord":"211948.606","point_lng":"4.4039179630000262","point_lat":"51.217483446000074"},{"id":"AN\/02\/09","naam":"C. Huysmanslaan","straat":"Camille Huysmanslaan","huisnummer":"","postcode":"2020","district":"ANTWERPEN","begindatum":"2002-01-01T00:00:00","toestellen":"","financiering":"Lokaal","opmerking":"Terrein overgenomen van sociale woonvesting","x_coord":"151333.40400000001","y_coord":"208895.00899999999","point_lng":"4.3878358700000604","point_lat":"51.190040181000029"},{"id":"AN\/00\/08","naam":"Lode Sebregtsparkje","straat":"Bogaardestraat","huisnummer":"","postcode":"2000","district":"ANTWERPEN","begindatum":"2007-09-14T00:00:00","toestellen":"","financiering":"Lokaal","opmerking":"","x_coord":"152120.79300000001","y_coord":"211639.19399999999","point_lng":"4.3991152750000424","point_lat":"51.214703705000034"},{"id":"AN\/05\/04","naam":"Akkerwindestraat","straat":"Akkerwindestraat","huisnummer":"1","postcode":"2050","district":"ANTWERPEN","begindatum":"1996-01-01T00:00:00","toestellen":"","financiering":"Lokaal","opmerking":"","x_coord":"150876.109","y_coord":"211812.962","point_lng":"4.3813025730000277","point_lat":"51.216269030000035"},{"id":"AN\/03\/06","naam":"Columbiastraat","straat":"Columbiastraat","huisnummer":"rechts 112","postcode":"2030","district":"ANTWERPEN","begindatum":"1998-04-01T00:00:00","toestellen":"","financiering":"Lokaal","opmerking":"","x_coord":"153845.79699999999","y_coord":"215766.549","point_lng":"4.4238473300000578","point_lat":"51.251792636000062"},{"id":"BE\/60\/01","naam":"Leeuwerikpark","straat":"Coremansstraat","huisnummer":"over 20","postcode":"2600","district":"BERCHEM","begindatum":"2003-01-01T00:00:00","toestellen":"","financiering":"Lokaal","opmerking":"","x_coord":"153545.875","y_coord":"208835.101","point_lng":"4.4194820750000758","point_lat":"51.189492007000069"},{"id":"BE\/60\/03","naam":"Brilschanspark H.Prostlaan","straat":"Henri Prostlaan","huisnummer":"over 7","postcode":"2600","district":"BERCHEM","begindatum":"1996-01-01T00:00:00","toestellen":"","financiering":"Lokaal","opmerking":"","x_coord":"154312.40100000001","y_coord":"208776.66500000001","point_lng":"4.4304454910000572","point_lat":"51.188961420000055"},{"id":"AN\/06\/18","naam":"Park spoor noord (grote zandspeelplaats)","straat":"Viaduct Dam","huisnummer":"","postcode":"2060","district":"ANTWERPEN","begindatum":"2008-01-01T00:00:00","toestellen":"","financiering":"Boven lokaal","opmerking":"","x_coord":"153859.00700000001","y_coord":"213476.64600000001","point_lng":"4.4240115600000536","point_lat":"51.231210161000035"},{"id":"AN\/06\/19","naam":"Park spoor noord (aan de Wadi)","straat":"Demerstraat A","huisnummer":"","postcode":"2060","district":"ANTWERPEN","begindatum":"2008-01-01T00:00:00","toestellen":"","financiering":"Boven lokaal","opmerking":"","x_coord":"154172.08300000001","y_coord":"213275.86499999999","point_lng":"4.4284913380000717","point_lat":"51.229403241000057"},{"id":"AN\/06\/21","naam":"Park spoor noord (aan de pingpongtafels)","straat":"Tulpstraat","huisnummer":"","postcode":"2060","district":"ANTWERPEN","begindatum":"2008-01-01T00:00:00","toestellen":"","financiering":"Boven lokaal","opmerking":"","x_coord":"154314.524","y_coord":"213138.81299999999","point_lng":"4.4305288430000473","point_lat":"51.228170298000066"},{"id":"WI\/61\/17","naam":"Monnikenplein","straat":"Monnikenplein","huisnummer":"over 6","postcode":"2610","district":"WILRIJK","begindatum":"2009-01-26T00:00:00","toestellen":"","financiering":"Lokaal","opmerking":"","x_coord":"154302.60800000001","y_coord":"207245.65700000001","point_lng":"4.4302868920000265","point_lat":"51.175199985000063"},{"id":"BO\/14\/15","naam":"M. van Goethemplein","straat":"Monseigneur Van Goethemplein","huisnummer":"10","postcode":"2140","district":"BORGERHOUT","begindatum":"2009-10-19T00:00:00","toestellen":"","financiering":"Lokaal","opmerking":"","x_coord":"155776.50099999999","y_coord":"210981.307","point_lng":"4.4514228860000458","point_lat":"51.208764759000076"},{"id":"DE\/10\/16","naam":"Eikblokstraat","straat":"Eikblokstraat","huisnummer":"over 96","postcode":"2100","district":"DEURNE","begindatum":"2009-09-07T00:00:00","toestellen":"","financiering":"Lokaal","opmerking":"","x_coord":"156557.80499999999","y_coord":"212660.54500000001","point_lng":"4.4626337990000593","point_lat":"51.223849963000077"},{"id":"DE\/10\/15","naam":"Langbaanvelden","straat":"Langbaanvelden","huisnummer":"","postcode":"2100","district":"DEURNE","begindatum":"2009-08-31T00:00:00","toestellen":"","financiering":"Lokaal","opmerking":"","x_coord":"157124.226","y_coord":"209218.70800000001","point_lng":"4.4706731820000414","point_lat":"51.192906441000048"},{"id":"DE\/10\/18","naam":"Bremweide","straat":"Ter Heydelaan","huisnummer":"","postcode":"2100","district":"DEURNE","begindatum":"2010-09-15T00:00:00","toestellen":"","financiering":"Lokaal","opmerking":"","x_coord":"157240.79699999999","y_coord":"213407.79500000001","point_lng":"4.4724253940000267","point_lat":"51.230558248000079"},{"id":"AN\/05\/19","naam":"Jonker van der Nootplein","straat":"Jonker van der Nootstraat","huisnummer":"over 17","postcode":"2050","district":"ANTWERPEN","begindatum":"2009-02-01T00:00:00","toestellen":"","financiering":"Lokaal","opmerking":"","x_coord":"150990.128","y_coord":"212007.96400000001","point_lng":"4.3829349800000728","point_lat":"51.218021586000077"},{"id":"BE\/60\/19","naam":"De Veldekens","straat":"Hoogveld","huisnummer":"8","postcode":"2600","district":"BERCHEM","begindatum":"2007-10-15T00:00:00","toestellen":"","financiering":"Lokaal","opmerking":"","x_coord":"154637.15700000001","y_coord":"208834.071","point_lng":"4.4350913850000211","point_lat":"51.189474847000042"},{"id":"AN\/02\/13","naam":"Kruishofstraat","straat":"Kruishofstraat","huisnummer":"over 60","postcode":"2020","district":"ANTWERPEN","begindatum":"2010-03-10T00:00:00","toestellen":"","financiering":"Lokaal","opmerking":"TC aanleg - Kristel Simoens","x_coord":"151826.136","y_coord":"208424.826","point_lng":"4.3948813420000761","point_lat":"51.185812511000051"},{"id":"HO\/66\/13","naam":"L. de Landrelaan","straat":"Lenaart de Landrelaan","huisnummer":"einde straat","postcode":"2660","district":"HOBOKEN","begindatum":"2011-05-01T00:00:00","toestellen":"","financiering":"Lokaal","opmerking":"","x_coord":"148193.74900000001","y_coord":"207321.28400000001","point_lng":"4.3429342140000244","point_lat":"51.175893913000039"},{"id":"AN\/06\/11","naam":"Vincent van Goghplein","straat":"Vincent Van Goghplein","huisnummer":"2","postcode":"2060","district":"ANTWERPEN","begindatum":"2004-06-01T00:00:00","toestellen":"","financiering":"Lokaal","opmerking":"","x_coord":"154244.68700000001","y_coord":"212432.55300000001","point_lng":"4.4295206410000674","point_lat":"51.221822693000036"},{"id":"EK\/18\/12","naam":"Hagelkruispark","straat":"Groot Hagelkruis","huisnummer":"achter 41","postcode":"2180","district":"EKEREN","begindatum":"2002-06-01T00:00:00","toestellen":"","financiering":"Lokaal","opmerking":"","x_coord":"153186.69500000001","y_coord":"218678.016","point_lng":"4.4144335280000746","point_lat":"51.27796571500005"},{"id":"HO\/66\/14","naam":"Louis Mastplein","straat":"Louis Mastplein","huisnummer":"rechts 54","postcode":"2660","district":"HOBOKEN","begindatum":"2010-10-27T00:00:00","toestellen":"","financiering":"Lokaal","opmerking":"","x_coord":"149988.80300000001","y_coord":"208054.902","point_lng":"4.3686027410000747","point_lat":"51.182490613000027"},{"id":"ME\/17\/21","naam":"Gemeentepark","straat":"Speelpleinstraat","huisnummer":"over 366","postcode":"2170","district":"MERKSEM","begindatum":"2009-10-05T00:00:00","toestellen":"","financiering":"Lokaal","opmerking":"","x_coord":"155315.68599999999","y_coord":"215386.83199999999","point_lng":"4.4448945550000758","point_lat":"51.248367726000026"},{"id":"AN\/00\/07","naam":"Frans Halsplein","straat":"Sint-Jacobsmarkt","huisnummer":"over 13","postcode":"2000","district":"ANTWERPEN","begindatum":"2007-09-26T00:00:00","toestellen":"","financiering":"Lokaal","opmerking":"Heraangelegd op 26\/09\/2007","x_coord":"153042.04800000001","y_coord":"212364.53599999999","point_lng":"4.4123059860000353","point_lat":"51.22121911000005"},{"id":"AN\/01\/01","naam":"Harmonie","straat":"Harmoniestraat","huisnummer":"","postcode":"2018","district":"ANTWERPEN","begindatum":"1995-01-01T00:00:00","toestellen":"","financiering":"Lokaal","opmerking":"Heraanleg voorzien","x_coord":"152971.56700000001","y_coord":"210170.976","point_lng":"4.411278641000024","point_lat":"51.201502829000049"},{"id":"AN\/01\/04","naam":"Fransenplaats","straat":"Fransenplaats","huisnummer":"8","postcode":"2018","district":"ANTWERPEN","begindatum":"2005-02-01T00:00:00","toestellen":"","financiering":"Lokaal","opmerking":"","x_coord":"152055.019","y_coord":"210069.90900000001","point_lng":"4.3981646750000323","point_lat":"51.200598524000043"},{"id":"AN\/01\/05","naam":"Lange Elzenstraat","straat":"Lange Elzenstraat","huisnummer":"over 62","postcode":"2018","district":"ANTWERPEN","begindatum":"2010-05-20T00:00:00","toestellen":"","financiering":"Lokaal","opmerking":"","x_coord":"151746.36499999999","y_coord":"210244.01500000001","point_lng":"4.3937496220000298","point_lat":"51.202164534000076"},{"id":"AN\/01\/06","naam":"Vinkenstraat","straat":"Vinkenstraat","huisnummer":"","postcode":"2018","district":"ANTWERPEN","begindatum":"2000-07-01T00:00:00","toestellen":"","financiering":"Lokaal","opmerking":"Heraanleg voorzien 2012","x_coord":"152510.69","y_coord":"210507.402","point_lng":"4.4046871270000452","point_lat":"51.204529040000068"},{"id":"AN\/02\/02","naam":"Lodewijk de Raetstraat","straat":"Lodewijk De Raetstraat","huisnummer":"over 4-6","postcode":"2020","district":"ANTWERPEN","begindatum":"2011-07-01T00:00:00","toestellen":"","financiering":"Lokaal","opmerking":"","x_coord":"150234.57500000001","y_coord":"209129.603","point_lng":"4.3721186150000335","point_lat":"51.192150493000042"},{"id":"AN\/02\/04","naam":"Volhardingsstraat -Silvertop","straat":"Volhardingstraat","huisnummer":"128","postcode":"2020","district":"ANTWERPEN","begindatum":"2009-12-01T00:00:00","toestellen":"","financiering":"Lokaal","opmerking":"","x_coord":"151495.32399999999","y_coord":"209417.016","point_lng":"4.3901542270000391","point_lat":"51.194731818000037"},{"id":"AN\/02\/05","naam":"Alfons De Cockplein","straat":"Alfons De Cockstraat","huisnummer":"over 47","postcode":"2020","district":"ANTWERPEN","begindatum":"1999-07-01T00:00:00","toestellen":"","financiering":"Lokaal","opmerking":"","x_coord":"150380.68799999999","y_coord":"208803.353","point_lng":"4.3742082620000247","point_lat":"51.189217893000034"},{"id":"AN\/02\/06","naam":"Den Tir","straat":"Valerius De Saedeleerstraat","huisnummer":"","postcode":"2020","district":"ANTWERPEN","begindatum":"2005-01-17T00:00:00","toestellen":"","financiering":"Lokaal","opmerking":"","x_coord":"150527.27900000001","y_coord":"208999.742","point_lng":"4.3763053720000471","point_lat":"51.190982999000028"},{"id":"AN\/02\/07","naam":"Kielpark 2","straat":"Boomsesteenweg","huisnummer":"over nr 97","postcode":"2020","district":"ANTWERPEN","begindatum":"2002-01-01T00:00:00","toestellen":"","financiering":"Lokaal","opmerking":"Terrein overgenomen van sociale woonvesting","x_coord":"151212.50200000001","y_coord":"209089.18700000001","point_lng":"4.3861072050000303","point_lat":"51.191785836000065"},{"id":"AN\/02\/08","naam":"Jan de Voslei","straat":"Jan De Voslei","huisnummer":"","postcode":"2020","district":"ANTWERPEN","begindatum":"2002-01-01T00:00:00","toestellen":"","financiering":"Lokaal","opmerking":"Terrein overgenomen van sociale woonvesting","x_coord":"151283.609","y_coord":"208996.965","point_lng":"4.3871239970000602","point_lat":"51.190956734000054"},{"id":"AN\/02\/10","naam":"Maria Regina","straat":"Jan De Voslei","huisnummer":"","postcode":"2020","district":"ANTWERPEN","begindatum":"2002-01-01T00:00:00","toestellen":"","financiering":"Lokaal","opmerking":"Terrein overgenomen van sociale woonvesting","x_coord":"151380.11799999999","y_coord":"208717.932","point_lng":"4.3885033420000354","point_lat":"51.188448406000077"},{"id":"AN\/02\/11","naam":"Jan Ligthartplein","straat":"Jan Ligthartplein","huisnummer":"","postcode":"2020","district":"ANTWERPEN","begindatum":"2002-01-01T00:00:00","toestellen":"","financiering":"Lokaal","opmerking":"Terrein overgenomen van sociale woonvesting","x_coord":"151426.185","y_coord":"208624.18100000001","point_lng":"4.3891618620000372","point_lat":"51.187605605000044"},{"id":"AN\/03\/01","naam":"Herman Vosstraat rechts vooraan","straat":"Herman Vosstraat","huisnummer":"over 1","postcode":"2030","district":"ANTWERPEN","begindatum":"1995-01-01T00:00:00","toestellen":"","financiering":"Lokaal","opmerking":"","x_coord":"152949.10800000001","y_coord":"217958.83600000001","point_lng":"4.4110226630000398","point_lat":"51.27150288200005"},{"id":"AN\/03\/03","naam":"Dragondersstraat","straat":"Dragondersstraat","huisnummer":"over 1","postcode":"2030","district":"ANTWERPEN","begindatum":"1999-12-01T00:00:00","toestellen":"","financiering":"Lokaal","opmerking":"","x_coord":"152740.76800000001","y_coord":"218744.43599999999","point_lng":"4.4080435420000299","point_lat":"51.278565073000038"},{"id":"AN\/03\/04","naam":"Philadelphiastraat","straat":"Philadelphiastraat","huisnummer":"achter 68","postcode":"2030","district":"ANTWERPEN","begindatum":"1996-01-01T00:00:00","toestellen":"","financiering":"Lokaal","opmerking":"","x_coord":"153947.42000000001","y_coord":"216541.342","point_lng":"4.4253114980000419","point_lat":"51.258755983000071"},{"id":"AN\/05\/03","naam":"Emiel Verhaerenlaan","straat":"Emile Verhaerenlaan","huisnummer":"","postcode":"2050","district":"ANTWERPEN","begindatum":"1996-01-01T00:00:00","toestellen":"","financiering":"Lokaal","opmerking":"","x_coord":"150770.609","y_coord":"212693.48999999999","point_lng":"4.3797947610000278","point_lat":"51.224183734000064"},{"id":"AN\/05\/05","naam":"Beatrijslaan","straat":"Beatrijslaan","huisnummer":"","postcode":"2050","district":"ANTWERPEN","begindatum":"1997-05-01T00:00:00","toestellen":"","financiering":"Lokaal","opmerking":"","x_coord":"151375.84700000001","y_coord":"212214.726","point_lng":"4.3884563860000299","point_lat":"51.219879195000033"},{"id":"AN\/05\/06","naam":"Tijl Uilenspiegellaan","straat":"Tijl Uilenspiegellaan","huisnummer":"achter 63","postcode":"2050","district":"ANTWERPEN","begindatum":"1997-05-01T00:00:00","toestellen":"","financiering":"Lokaal","opmerking":"","x_coord":"150871.71299999999","y_coord":"213290.20000000001","point_lng":"4.3812435790000563","point_lat":"51.229547029000059"},{"id":"AN\/05\/07","naam":"Julius Vuylstekelaan","straat":"Julius Vuylstekelaan","huisnummer":"achter 6-1","postcode":"2050","district":"ANTWERPEN","begindatum":"1999-05-01T00:00:00","toestellen":"","financiering":"Lokaal","opmerking":"","x_coord":"150800.47399999999","y_coord":"213143.66399999999","point_lng":"4.3802233640000736","point_lat":"51.228230023000037"},{"id":"AN\/05\/13","naam":"Bouvaertlaan","straat":"Bouvaertlaan","huisnummer":"achter 20","postcode":"2050","district":"ANTWERPEN","begindatum":"2000-09-01T00:00:00","toestellen":"","financiering":"Lokaal","opmerking":"","x_coord":"151131.68299999999","y_coord":"213524.875","point_lng":"4.3849660880000556","point_lat":"51.231655881000052"},{"id":"AN\/05\/14","naam":"Internationale zeevaartschool","straat":"Beatrijslaan","huisnummer":"","postcode":"2050","district":"ANTWERPEN","begindatum":"1999-11-01T00:00:00","toestellen":"","financiering":"Lokaal","opmerking":"","x_coord":"149576.66099999999","y_coord":"210804.837","point_lng":"4.362705960000028","point_lat":"51.207208282000067"},{"id":"AN\/05\/16","naam":"Wandeldijk 1ste vanaf Boeienweide","straat":"Thonetlaan","huisnummer":"","postcode":"2050","district":"ANTWERPEN","begindatum":"2006-08-28T00:00:00","toestellen":"","financiering":"Boven lokaal","opmerking":"","x_coord":"151497.15900000001","y_coord":"212656.66500000001","point_lng":"4.3901946580000413","point_lat":"51.223851196000055"},{"id":"AN\/05\/18","naam":"Wandeldijk 3 de vanaf boeienweide","straat":"Thonetlaan","huisnummer":"","postcode":"2050","district":"ANTWERPEN","begindatum":"2006-08-28T00:00:00","toestellen":"","financiering":"Boven lokaal","opmerking":"","x_coord":"151620.51999999999","y_coord":"213670.323","point_lng":"4.3919652590000737","point_lat":"51.232961977000059"},{"id":"AN\/06\/02","naam":"Jos Verhelstplein","straat":"Pompoenstraat","huisnummer":"over 4","postcode":"2060","district":"ANTWERPEN","begindatum":"1997-04-01T00:00:00","toestellen":"","financiering":"Lokaal","opmerking":"","x_coord":"154492.08100000001","y_coord":"213069.65299999999","point_lng":"4.4330697900000473","point_lat":"51.227547279000078"},{"id":"AN\/06\/03","naam":"Willy Vandersteenplein","straat":"Willy Vandersteenplein","huisnummer":"","postcode":"2060","district":"ANTWERPEN","begindatum":"1996-01-01T00:00:00","toestellen":"","financiering":"Lokaal","opmerking":"","x_coord":"154245.04500000001","y_coord":"212715.63","point_lng":"4.4295291520000433","point_lat":"51.224367096000037"},{"id":"AN\/06\/05","naam":"Geelhandplaats","straat":"Geelhandplaats","huisnummer":"","postcode":"2060","district":"ANTWERPEN","begindatum":"2010-05-26T00:00:00","toestellen":"","financiering":"Lokaal","opmerking":"","x_coord":"154291.10699999999","y_coord":"212549.82800000001","point_lng":"4.4301864950000436","point_lat":"51.222876456000051"},{"id":"AN\/06\/06","naam":"Noordschippersdok","straat":"Noordschippersdok","huisnummer":"","postcode":"2060","district":"ANTWERPEN","begindatum":"2000-07-01T00:00:00","toestellen":"","financiering":"Lokaal","opmerking":"","x_coord":"154341.17800000001","y_coord":"213716.27600000001","point_lng":"4.4309174730000223","point_lat":"51.233360538000056"},{"id":"AN\/06\/07","naam":"Duinplak","straat":"Duinstraat","huisnummer":"","postcode":"2060","district":"ANTWERPEN","begindatum":"2004-01-01T00:00:00","toestellen":"","financiering":"Lokaal","opmerking":"","x_coord":"154100.82000000001","y_coord":"212465.875","point_lng":"4.4274617750000402","point_lat":"51.222123267000029"},{"id":"AN\/06\/08","naam":"Zusters der armenplein","straat":"Rotterdamstraat","huisnummer":"","postcode":"2060","district":"ANTWERPEN","begindatum":"2005-11-17T00:00:00","toestellen":"","financiering":"Lokaal","opmerking":"","x_coord":"153643.815","y_coord":"212589.209","point_lng":"4.4209216270000411","point_lat":"51.22323497900004"},{"id":"AN\/06\/09","naam":"Sint Jansplein","straat":"Sint-Jansplein","huisnummer":"","postcode":"2060","district":"ANTWERPEN","begindatum":"2006-04-21T00:00:00","toestellen":"","financiering":"Lokaal","opmerking":"","x_coord":"153413.87299999999","y_coord":"212882.69699999999","point_lng":"4.4176330730000473","point_lat":"51.225874403000034"},{"id":"BE\/60\/02","naam":"Strijdhoflaan","straat":"Strijdhoflaan","huisnummer":"tss 77 - 5","postcode":"2600","district":"BERCHEM","begindatum":"2005-02-03T00:00:00","toestellen":"","financiering":"Lokaal","opmerking":"","x_coord":"154040.318","y_coord":"208315.73199999999","point_lng":"4.4265485080000531","point_lat":"51.184820328000058"},{"id":"BE\/60\/04","naam":"Maloustraat","straat":"Maloustraat","huisnummer":"over nr 2","postcode":"2600","district":"BERCHEM","begindatum":"2003-01-01T00:00:00","toestellen":"","financiering":"Lokaal","opmerking":"","x_coord":"153897.427","y_coord":"209853.84299999999","point_lng":"4.4245217500000535","point_lat":"51.198646637000081"},{"id":"BE\/60\/05","naam":"Villegaspark","straat":"Uitbreidingstraat","huisnummer":"over nrs 2","postcode":"2600","district":"BERCHEM","begindatum":"1996-01-01T00:00:00","toestellen":"","financiering":"Lokaal","opmerking":"","x_coord":"153929.95600000001","y_coord":"209392.68700000001","point_lng":"4.4249820150000687","point_lat":"51.194501320000029"},{"id":"BE\/60\/08","naam":"Het Rooi","straat":"Berchemboslaan","huisnummer":"hoek","postcode":"2600","district":"BERCHEM","begindatum":"1996-01-01T00:00:00","toestellen":"","financiering":"Lokaal","opmerking":"heraangelegd 06\/06\/2011","x_coord":"154850.95499999999","y_coord":"208335.995","point_lng":"4.4381426960000567","point_lat":"51.184996096000077"},{"id":"BE\/60\/09","naam":"Wasstraat","straat":"Wasstraat","huisnummer":"recht van","postcode":"2600","district":"BERCHEM","begindatum":"1999-01-01T00:00:00","toestellen":"","financiering":"Lokaal","opmerking":"","x_coord":"153556.28899999999","y_coord":"209755.87299999999","point_lng":"4.4196402860000603","point_lat":"51.197768291000045"},{"id":"BE\/60\/13","naam":"Rodekruislaan","straat":"Rodekruislaan","huisnummer":"over 5","postcode":"2600","district":"BERCHEM","begindatum":"2010-04-06T00:00:00","toestellen":"","financiering":"Lokaal","opmerking":"","x_coord":"154952.348","y_coord":"210291.83900000001","point_lng":"4.4396200270000463","point_lat":"51.202575300000035"},{"id":"BE\/60\/15","naam":"Potvlietlaan","straat":"Potvlietlaan","huisnummer":"over 34","postcode":"2600","district":"BERCHEM","begindatum":"2005-05-01T00:00:00","toestellen":"","financiering":"Lokaal","opmerking":"","x_coord":"155196.663","y_coord":"210472.87700000001","point_lng":"4.4431182440000612","point_lat":"51.204200366000066"},{"id":"BE\/60\/17","naam":"Frans van Hombeeckplein","straat":"Frans Van Hombeeckplein","huisnummer":"","postcode":"2600","district":"BERCHEM","begindatum":"2001-08-01T00:00:00","toestellen":"","financiering":"Lokaal","opmerking":"","x_coord":"153387.28099999999","y_coord":"209443.30100000001","point_lng":"4.4172194280000667","point_lat":"51.194959786000027"},{"id":"BE\/60\/18","naam":"Brilschanspark M.A.straat","straat":"Marcel Auburtinlaan","huisnummer":"over 63","postcode":"2600","district":"BERCHEM","begindatum":"2000-04-01T00:00:00","toestellen":"","financiering":"Lokaal","opmerking":"","x_coord":"154296.87100000001","y_coord":"208996.685","point_lng":"4.4302260180000417","point_lat":"51.190939188000073"},{"id":"BO\/14\/01","naam":"Terloplein","straat":"Terlostraat","huisnummer":"","postcode":"2140","district":"BORGERHOUT","begindatum":"1996-06-01T00:00:00","toestellen":"","financiering":"Lokaal","opmerking":"","x_coord":"155276.10699999999","y_coord":"212132.63","point_lng":"4.4442795060000435","point_lat":"51.219118198000047"},{"id":"BO\/14\/06","naam":"Koxplein","straat":"Koxplein","huisnummer":"over 11","postcode":"2140","district":"BORGERHOUT","begindatum":"2009-06-18T00:00:00","toestellen":"","financiering":"Lokaal","opmerking":"","x_coord":"154566.21799999999","y_coord":"211277.70600000001","point_lng":"4.4341080650000322","point_lat":"51.211439952000035"},{"id":"BO\/14\/08","naam":"Luisbekelaar","straat":"Luisbekelaar","huisnummer":"","postcode":"2140","district":"BORGERHOUT","begindatum":"2000-08-01T00:00:00","toestellen":"","financiering":"Lokaal","opmerking":"","x_coord":"155332.288","y_coord":"210671.728","point_lng":"4.445061762000023","point_lat":"51.205986470000028"},{"id":"BO\/14\/10","naam":"Bloemstraat","straat":"Bloemstraat","huisnummer":"over 65","postcode":"2140","district":"BORGERHOUT","begindatum":"2001-06-01T00:00:00","toestellen":"","financiering":"Lokaal","opmerking":"","x_coord":"154180.20000000001","y_coord":"211450.42199999999","point_lng":"4.4285860310000658","point_lat":"51.212995381000042"},{"id":"BZ\/04\/02","naam":"Kommershoek","straat":"Antwerpsebaan","huisnummer":"over 270","postcode":"2040","district":"BEZALI","begindatum":"2005-10-05T00:00:00","toestellen":"","financiering":"Lokaal","opmerking":"","x_coord":"146721.87299999999","y_coord":"226879.649","point_lng":"4.3217147820000719","point_lat":"51.351682919000041"},{"id":"BZ\/04\/05","naam":"Fort Lillo","straat":"Vestingstraat","huisnummer":"achter 7","postcode":"2040","district":"BEZALI","begindatum":"2000-09-01T00:00:00","toestellen":"","financiering":"Boven lokaal","opmerking":"","x_coord":"144422.06400000001","y_coord":"221646.71900000001","point_lng":"4.2887839560000316","point_lat":"51.304632020000042"},{"id":"BZ\/04\/08","naam":"Vossestaartstraat","straat":"Vossestaartstraat","huisnummer":"","postcode":"2040","district":"BEZALI","begindatum":"2000-11-01T00:00:00","toestellen":"","financiering":"Lokaal","opmerking":"","x_coord":"146562.59","y_coord":"225991.038","point_lng":"4.3194367560000728","point_lat":"51.343695245000049"},{"id":"DE\/10\/01","naam":"Tweegezusterslaan","straat":"Tweegezusterslaan","huisnummer":"tss 41 - 4","postcode":"2100","district":"DEURNE","begindatum":"1997-01-01T00:00:00","toestellen":"","financiering":"Lokaal","opmerking":"","x_coord":"157347.66200000001","y_coord":"213027.14499999999","point_lng":"4.4739474860000428","point_lat":"51.227135461000046"},{"id":"DE\/10\/03","naam":"Bisschoppenhof","straat":"Suzanne Spanhovenstraat","huisnummer":"","postcode":"2100","district":"DEURNE","begindatum":"1996-01-01T00:00:00","toestellen":"","financiering":"Lokaal","opmerking":"","x_coord":"156420.70999999999","y_coord":"213502.772","point_lng":"4.4606865290000428","point_lat":"51.231421771000043"},{"id":"DE\/10\/05","naam":"Boekenbergpark","straat":"Van Baurscheitlaan","huisnummer":"","postcode":"2100","district":"DEURNE","begindatum":"2010-11-01T00:00:00","toestellen":"","financiering":"Boven lokaal","opmerking":"","x_coord":"156550.97399999999","y_coord":"209787.976","point_lng":"4.4624834050000572","point_lat":"51.198030171000028"},{"id":"DE\/10\/09","naam":"Bisthovenplein","straat":"De Bisthovenlei","huisnummer":"over 110","postcode":"2100","district":"DEURNE","begindatum":"2000-04-01T00:00:00","toestellen":"","financiering":"Lokaal","opmerking":"","x_coord":"156118.36300000001","y_coord":"213029.76500000001","point_lng":"4.4563498680000748","point_lat":"51.227173546000074"},{"id":"DE\/10\/12","naam":"Den Tip","straat":"Van den Hautelei","huisnummer":"79","postcode":"2100","district":"DEURNE","begindatum":"2004-10-06T00:00:00","toestellen":"","financiering":"Lokaal","opmerking":"","x_coord":"156948.992","y_coord":"210476.79300000001","point_lng":"4.468190924000055","point_lat":"51.204216859000041"},{"id":"DE\/10\/13","naam":"Koraalplaats","straat":"Koraalplaats","huisnummer":"","postcode":"2100","district":"DEURNE","begindatum":"2005-10-04T00:00:00","toestellen":"","financiering":"Lokaal","opmerking":"","x_coord":"156299.74100000001","y_coord":"212185.36499999999","point_lng":"4.45893144300004","point_lat":"51.219581776000041"},{"id":"EK\/18\/01","naam":"Leugenberg","straat":"Leugenberg","huisnummer":"achter 143","postcode":"2180","district":"EKEREN","begindatum":"1996-01-01T00:00:00","toestellen":"","financiering":"Lokaal","opmerking":"","x_coord":"152871.239","y_coord":"220965.35699999999","point_lng":"4.4099315240000578","point_lat":"51.298526392000042"},{"id":"EK\/18\/05","naam":"Hof De Bist","straat":"Veltwijcklaan","huisnummer":"","postcode":"2180","district":"EKEREN","begindatum":"2007-02-01T00:00:00","toestellen":"","financiering":"Lokaal","opmerking":"","x_coord":"155156.14600000001","y_coord":"219228.83600000001","point_lng":"4.4426653880000231","point_lat":"51.282902024000066"},{"id":"EK\/18\/10","naam":"Schoutlaan","straat":"Schoutlaan","huisnummer":"achter 22","postcode":"2180","district":"EKEREN","begindatum":"2004-03-22T00:00:00","toestellen":"","financiering":"Lokaal","opmerking":"","x_coord":"155621.50399999999","y_coord":"218797.435","point_lng":"4.4493282450000606","point_lat":"51.279020092000053"},{"id":"EK\/18\/11","naam":"Weegbreelaan","straat":"Weegbreelaan","huisnummer":"","postcode":"2180","district":"EKEREN","begindatum":"2000-04-01T00:00:00","toestellen":"","financiering":"Lokaal","opmerking":"","x_coord":"154964.63699999999","y_coord":"218833.20600000001","point_lng":"4.4399150820000273","point_lat":"51.279347743000073"},{"id":"HO\/66\/03","naam":"Paul Vekemanslaan","straat":"Paul Vekemanslaan","huisnummer":"rechts 11","postcode":"2660","district":"HOBOKEN","begindatum":"2001-01-01T00:00:00","toestellen":"","financiering":"Lokaal","opmerking":"","x_coord":"149362.92600000001","y_coord":"207197.63800000001","point_lng":"4.3596530420000477","point_lat":"51.174784805000058"},{"id":"HO\/66\/07","naam":"Majoor Maelfaitplein","straat":"Majoor Maelfaitplein","huisnummer":"","postcode":"2660","district":"HOBOKEN","begindatum":"2000-05-01T00:00:00","toestellen":"","financiering":"Lokaal","opmerking":"","x_coord":"149945.375","y_coord":"206840.79699999999","point_lng":"4.3679815360000589","point_lat":"51.171577575000072"},{"id":"ME\/17\/02","naam":"Kwadeveldenplein","straat":"Kwadeveldenplein","huisnummer":"van 16 t\/m","postcode":"2170","district":"MERKSEM","begindatum":"1996-01-01T00:00:00","toestellen":"","financiering":"Lokaal","opmerking":"","x_coord":"155125.70499999999","y_coord":"216543.72099999999","point_lng":"4.4421903720000273","point_lat":"51.258767913000042"},{"id":"ME\/17\/17","naam":"Kastanjeboomplein","straat":"Kastanjeboomplein","huisnummer":"","postcode":"2170","district":"MERKSEM","begindatum":"2004-08-02T00:00:00","toestellen":"","financiering":"Lokaal","opmerking":"","x_coord":"155390.223","y_coord":"216425.90700000001","point_lng":"4.4459777880000502","point_lat":"51.257706517000031"},{"id":"ME\/17\/20","naam":"Hof ter Heyde","straat":"Van Praetlei","huisnummer":"","postcode":"2170","district":"MERKSEM","begindatum":"2006-10-03T00:00:00","toestellen":"","financiering":"Lokaal","opmerking":"","x_coord":"156582.364","y_coord":"215777.65100000001","point_lng":"4.4630427700000723","point_lat":"51.251867257000072"},{"id":"WI\/61\/13","naam":"Kortestraat","straat":"Kortestraat","huisnummer":"over 24 -","postcode":"2610","district":"WILRIJK","begindatum":"2001-04-01T00:00:00","toestellen":"","financiering":"Lokaal","opmerking":"","x_coord":"152395.723","y_coord":"206818.054","point_lng":"4.403016879000063","point_lat":"51.171367801000031"},{"id":"WI\/61\/15","naam":"Sterrenlaan","straat":"Sterrenlaan","huisnummer":"","postcode":"2610","district":"WILRIJK","begindatum":"2005-07-08T00:00:00","toestellen":"","financiering":"Lokaal","opmerking":"","x_coord":"154309.71599999999","y_coord":"206839.144","point_lng":"4.4303836070000671","point_lat":"51.171545965000064"},{"id":"AN\/01\/02","naam":"Dageraadplaats","straat":"Dageraadplaats","huisnummer":"","postcode":"2018","district":"ANTWERPEN","begindatum":"2007-08-28T00:00:00","toestellen":"","financiering":"Lokaal","opmerking":"via verdwijnpalen met badge, niet via terrassen","x_coord":"154297.674","y_coord":"210835.91399999999","point_lng":"4.4302597500000616","point_lat":"51.207471037000062"},{"id":"AN\/02\/01","naam":"Kielpark kant Sint Bernardsesteenweg","straat":"Sint-Bernardsesteenweg","huisnummer":"over 8","postcode":"2020","district":"ANTWERPEN","begindatum":"1996-01-01T00:00:00","toestellen":"","financiering":"Boven lokaal","opmerking":"","x_coord":"150851.35399999999","y_coord":"209068.28","point_lng":"4.3809411580000415","point_lat":"51.191598615000032"},{"id":"AN\/03\/02","naam":"Thomas Greshamstraat","straat":"Thomas Greshamstraat","huisnummer":"over 9","postcode":"2030","district":"ANTWERPEN","begindatum":"2000-06-01T00:00:00","toestellen":"","financiering":"Lokaal","opmerking":"","x_coord":"152648.454","y_coord":"218081.85000000001","point_lng":"4.406715570000074","point_lat":"51.272610064000048"},{"id":"HO\/66\/11","naam":"Alfred Nobellaan","straat":"Alfred Nobellaan","huisnummer":"rechts 27","postcode":"2660","district":"HOBOKEN","begindatum":"2000-03-01T00:00:00","toestellen":"","financiering":"Lokaal","opmerking":"","x_coord":"149629.78200000001","y_coord":"207497.003","point_lng":"4.3634686270000316","point_lat":"51.177475854000079"},{"id":"AN\/01\/03","naam":"Stadspark","straat":"Quinten Matsijslei","huisnummer":"","postcode":"2018","district":"ANTWERPEN","begindatum":"2007-09-03T00:00:00","toestellen":"","financiering":"Boven lokaal","opmerking":"grondwerken door Nooyens iov VCR-Delphi-Rumst","x_coord":"153248.94200000001","y_coord":"211509.60399999999","point_lng":"4.4152594650000765","point_lat":"51.213533472000051"},{"id":"AN\/02\/03","naam":"Nachtegalenpark","straat":"Florali\u00ebnlaan","huisnummer":"","postcode":"2020","district":"ANTWERPEN","begindatum":"1995-01-01T00:00:00","toestellen":"","financiering":"Boven lokaal","opmerking":"","x_coord":"152968.08199999999","y_coord":"208396.41","point_lng":"4.4112138230000255","point_lat":"51.185552176000044"},{"id":"ME\/17\/10","naam":"Distelhoek","straat":"Distelhoek","huisnummer":"naast 4","postcode":"2170","district":"MERKSEM","begindatum":"1996-01-01T00:00:00","toestellen":"","financiering":"Lokaal","opmerking":"","x_coord":"154451.522","y_coord":"215715.647","point_lng":"4.4325223580000284","point_lat":"51.251330662000044"},{"id":"ME\/17\/09","naam":"Wijngaardberg","straat":"Wijngaardberg","huisnummer":"over 61","postcode":"2170","district":"MERKSEM","begindatum":"2001-03-01T00:00:00","toestellen":"","financiering":"Lokaal","opmerking":"","x_coord":"154531.18599999999","y_coord":"215090.84","point_lng":"4.433655381000051","point_lat":"51.245714080000027"},{"id":"ME\/17\/05","naam":"Borrewaterstraat","straat":"Borrewaterstraat","huisnummer":"","postcode":"2170","district":"MERKSEM","begindatum":"2005-02-22T00:00:00","toestellen":"","financiering":"Lokaal","opmerking":"","x_coord":"155389.56400000001","y_coord":"214383.11499999999","point_lng":"4.4459374250000678","point_lat":"51.239345308000054"},{"id":"EK\/18\/07","naam":"Veltwijckpark","straat":"Veltwijcklaan","huisnummer":"","postcode":"2180","district":"EKEREN","begindatum":"1996-01-01T00:00:00","toestellen":"","financiering":"Lokaal","opmerking":"","x_coord":"153825.459","y_coord":"218600.73499999999","point_lng":"4.4235867110000413","point_lat":"51.27726711400004"},{"id":"BE\/60\/11","naam":"Langemarkstraat","straat":"Langemarkstraat","huisnummer":"over 5","postcode":"2600","district":"BERCHEM","begindatum":"1999-05-01T00:00:00","toestellen":"","financiering":"Lokaal","opmerking":"","x_coord":"155223.77499999999","y_coord":"209381.10699999999","point_lng":"4.4434901740000328","point_lat":"51.194386777000034"},{"id":"HO\/66\/04","naam":"Romestraat","straat":"Romestraat","huisnummer":"achter 108","postcode":"2660","district":"HOBOKEN","begindatum":"1997-05-01T00:00:00","toestellen":"","financiering":"Lokaal","opmerking":"","x_coord":"148726.761","y_coord":"205665.67000000001","point_lng":"4.3505614090000222","point_lat":"51.161013635000074"},{"id":"WI\/61\/01","naam":"Steytelinckpark","straat":"Steytelincklei","huisnummer":"achter ker","postcode":"2610","district":"WILRIJK","begindatum":"1996-01-01T00:00:00","toestellen":"","financiering":"Boven lokaal","opmerking":"","x_coord":"152425.16899999999","y_coord":"206665.69500000001","point_lng":"4.4034368460000337","point_lat":"51.169998184000065"},{"id":"HO\/66\/01","naam":"Constant Meunierplein","straat":"Constantin Meunierplein","huisnummer":"","postcode":"2660","district":"HOBOKEN","begindatum":"2005-01-28T00:00:00","toestellen":"","financiering":"Lokaal","opmerking":"","x_coord":"148033.079","y_coord":"206803.86199999999","point_lng":"4.3406393880000564","point_lat":"51.171242535000033"},{"id":"AN\/02\/12","naam":"GBA","straat":"VIIde-Olympiadelaan","huisnummer":"","postcode":"2020","district":"ANTWERPEN","begindatum":"2005-07-04T00:00:00","toestellen":"","financiering":"Lokaal","opmerking":"","x_coord":"150819.65599999999","y_coord":"208153.31899999999","point_lng":"4.3804854460000229","point_lat":"51.183374527000069"},{"id":"AN\/05\/10","naam":"Boeienweide","straat":"Thonetlaan","huisnummer":"","postcode":"2050","district":"ANTWERPEN","begindatum":"2000-04-01T00:00:00","toestellen":"","financiering":"Lokaal","opmerking":"","x_coord":"151457.75700000001","y_coord":"212483.63699999999","point_lng":"4.3896299110000427","point_lat":"51.222296060000076"},{"id":"BE\/60\/06","naam":"Het Prieel","straat":"Ter Nieuwerbrugge","huisnummer":"","postcode":"2600","district":"BERCHEM","begindatum":"2011-08-22T00:00:00","toestellen":"","financiering":"Lokaal","opmerking":"","x_coord":"155331.152","y_coord":"208860.98300000001","point_lng":"4.4450184480000416","point_lat":"51.189710648000073"},{"id":"BZ\/04\/03","naam":"Zandvlietse Dorpsstraat","straat":"Zandvlietse Dorpstraat","huisnummer":"over 112","postcode":"2040","district":"BEZALI","begindatum":"1998-05-01T00:00:00","toestellen":"","financiering":"Lokaal","opmerking":"","x_coord":"146455.20999999999","y_coord":"227462.15900000001","point_lng":"4.3178816360000383","point_lat":"51.356916923000028"},{"id":"AN\/06\/16","naam":"Park spoor noord (naast de school)","straat":"Bredastraat","huisnummer":"","postcode":"2060","district":"ANTWERPEN","begindatum":"2008-01-01T00:00:00","toestellen":"","financiering":"Boven lokaal","opmerking":"","x_coord":"153634.497","y_coord":"213492.23499999999","point_lng":"4.4207975320000514","point_lat":"51.231351773000029"},{"id":"AN\/06\/15","naam":"Park spoor noord (aan sorteerstraatje)","straat":"Lange Dijkstraat","huisnummer":"","postcode":"2060","district":"ANTWERPEN","begindatum":"2008-01-01T00:00:00","toestellen":"","financiering":"Boven lokaal","opmerking":"","x_coord":"153615.61499999999","y_coord":"213343.728","point_lng":"4.4205256890000442","point_lat":"51.23001706000008"},{"id":"AN\/06\/17","naam":"Park spoor noord (naast de Cargo)","straat":"Hardenvoort","huisnummer":"","postcode":"2060","district":"ANTWERPEN","begindatum":"2008-01-01T00:00:00","toestellen":"","financiering":"Boven lokaal","opmerking":"","x_coord":"153810.32999999999","y_coord":"213491.26999999999","point_lng":"4.4233148360000314","point_lat":"51.231341937000082"},{"id":"AN\/06\/20","naam":"Park spoor noord (op de heuvel)","straat":"Demerstraat B","huisnummer":"","postcode":"2060","district":"ANTWERPEN","begindatum":"2008-01-01T00:00:00","toestellen":"","financiering":"Boven lokaal","opmerking":"","x_coord":"154254.61600000001","y_coord":"213260.17199999999","point_lng":"4.4296726840000247","point_lat":"51.229261571000052"},{"id":"ME\/17\/10","naam":"Distelhoek","straat":"Distelhoek","huisnummer":"naast 4","postcode":"2170","district":"MERKSEM","begindatum":"1996-01-01T00:00:00","toestellen":"","financiering":"Lokaal","opmerking":"","x_coord":"154451.522","y_coord":"215715.647","point_lng":"4.4325223580000284","point_lat":"51.251330662000044"},{"id":"BO\/14\/16","naam":"Beukenplein","straat":"Beukenstraat","huisnummer":"einde straat","postcode":"2140","district":"BORGERHOUT","begindatum":"2009-10-19T00:00:00","toestellen":"","financiering":"Lokaal","opmerking":"","x_coord":"155108.12","y_coord":"211426.33100000001","point_lng":"4.441865023000048","point_lat":"51.212771231000033"},{"id":"DE\/10\/17","naam":"Van Cortbeemdelei","straat":"Van Cortbeemdelei","huisnummer":"","postcode":"2100","district":"DEURNE","begindatum":"2010-05-17T00:00:00","toestellen":"","financiering":"Lokaal","opmerking":"","x_coord":"155666.334","y_coord":"213717.72200000001","point_lng":"4.4498899060000667","point_lat":"51.233361837000075"},{"id":"HO\/66\/12","naam":"Salvador Alliende","straat":"Salvador Allendestraat","huisnummer":"einde straat","postcode":"2660","district":"HOBOKEN","begindatum":"2009-04-23T00:00:00","toestellen":"","financiering":"Lokaal","opmerking":"","x_coord":"149219.734","y_coord":"205997.26999999999","point_lng":"4.3576077980000605","point_lat":"51.163995053000065"},{"id":"AN\/03\/07","naam":"Herman Vosstraat 2","straat":"Herman Vosstraat","huisnummer":"rechts 5","postcode":"2030","district":"ANTWERPEN","begindatum":"2010-11-02T00:00:00","toestellen":"","financiering":"Lokaal","opmerking":"","x_coord":"153052.101","y_coord":"217904.804","point_lng":"4.4124979640000674","point_lat":"51.27101667800008"},{"id":"AN\/05\/17","naam":"Wandeldijk 2de vanaf boeienweide","straat":"Thonetlaan","huisnummer":"","postcode":"2050","district":"ANTWERPEN","begindatum":"2006-08-28T00:00:00","toestellen":"","financiering":"Boven lokaal","opmerking":"","x_coord":"151673.98199999999","y_coord":"212993.40400000001","point_lng":"4.3927273780000746","point_lat":"51.22687742100004"},{"id":"AN\/06\/04","naam":"Schoolstraat","straat":"Schoolstraat","huisnummer":"","postcode":"2060","district":"ANTWERPEN","begindatum":"2004-06-28T00:00:00","toestellen":"","financiering":"Lokaal","opmerking":"","x_coord":"154487.245","y_coord":"212692.76500000001","point_lng":"4.4329958000000715","point_lat":"51.22415970600008"},{"id":"BE\/60\/07","naam":"Corneel Jasperstraat","straat":"Corneel Jaspersstraat","huisnummer":"achter 10","postcode":"2600","district":"BERCHEM","begindatum":"1996-01-01T00:00:00","toestellen":"","financiering":"Lokaal","opmerking":"","x_coord":"154767.59299999999","y_coord":"209834.61300000001","point_lng":"4.4369704910000678","point_lat":"51.198467124000047"},{"id":"BE\/60\/16","naam":"Florent Cootmansplein","straat":"Florent Cootmansplein","huisnummer":"thv 19","postcode":"2600","district":"BERCHEM","begindatum":"2001-05-01T00:00:00","toestellen":"","financiering":"Lokaal","opmerking":"","x_coord":"154936.408","y_coord":"209212.48800000001","point_lng":"4.439377008000065","point_lat":"51.19287372000008"},{"id":"BO\/14\/12","naam":"L. Naeyaertplein","straat":"Luitenant Naeyaertplein","huisnummer":"","postcode":"2140","district":"BORGERHOUT","begindatum":"2004-10-14T00:00:00","toestellen":"","financiering":"Lokaal","opmerking":"","x_coord":"155017.35500000001","y_coord":"211072.943","point_lng":"4.4405611260000342","point_lat":"51.209595638000053"},{"id":"BZ\/04\/09","naam":"Piep in 't riet","straat":"Piep-in-'t-riet","huisnummer":"","postcode":"2040","district":"BEZALI","begindatum":"2006-05-30T00:00:00","toestellen":"","financiering":"Lokaal","opmerking":"","x_coord":"146692.11300000001","y_coord":"226450.86499999999","point_lng":"4.3212914480000677","point_lat":"51.34782887800003"},{"id":"DE\/10\/07","naam":"t Schijntje","straat":"Ten Eekhovelei","huisnummer":"achter 69","postcode":"2100","district":"DEURNE","begindatum":"1997-05-01T00:00:00","toestellen":"","financiering":"Lokaal","opmerking":"","x_coord":"155755.06299999999","y_coord":"212710.12700000001","point_lng":"4.4511439940000628","point_lat":"51.224304314000051"},{"id":"HO\/66\/05","naam":"Sorghvlietpark","straat":"Marneflaan","huisnummer":"","postcode":"2660","district":"HOBOKEN","begindatum":"2009-11-30T00:00:00","toestellen":"","financiering":"Lokaal","opmerking":"","x_coord":"148789.818","y_coord":"206679.834","point_lng":"4.3514596780000261","point_lat":"51.170129663000068"},{"id":"ME\/17\/04","naam":"Fort van Merksem","straat":"Fortsteenweg","huisnummer":"over bunker","postcode":"2170","district":"MERKSEM","begindatum":"2002-06-01T00:00:00","toestellen":"","financiering":"Boven lokaal","opmerking":"","x_coord":"156238.52100000001","y_coord":"217108.48999999999","point_lng":"4.4581412520000754","point_lat":"51.263833057000056"},{"id":"WI\/61\/16","naam":"Vorstenhuislaan","straat":"Vorstenhuislaan","huisnummer":"","postcode":"2610","district":"WILRIJK","begindatum":"2007-05-01T00:00:00","toestellen":"","financiering":"Lokaal","opmerking":"","x_coord":"151364.34099999999","y_coord":"204697.571","point_lng":"4.3882615790000727","point_lat":"51.152311144000066"},{"id":"AN\/03\/10","naam":"Rozemaai","straat":"Renaat Veremansstraat","huisnummer":"1","postcode":"2030","district":"ANTWERPEN","begindatum":"2011-03-01T00:00:00","toestellen":"","financiering":"Lokaal","opmerking":"","x_coord":"153284.98421458001","y_coord":"217761.22184670999","point_lng":"4.4158335370000259","point_lat":"51.269724814000028"},{"id":"AN\/","naam":"Konijnenwei","straat":"Singel","huisnummer":"1","postcode":"2018","district":"ANTWERPEN","begindatum":"2011-11-01T00:00:00","toestellen":"","financiering":"Lokaal","opmerking":"","x_coord":"151436.47873073001","y_coord":"210173.84461504","point_lng":"4.3893156150000436","point_lat":"51.201534712000068"},{"id":"WI\/61\/18","naam":"De Bist","straat":"Bist","huisnummer":"1","postcode":"2610","district":"WILRIJK","begindatum":"2011-03-01T00:00:00","toestellen":"","financiering":"Lokaal","opmerking":"","x_coord":"151753.67568555","y_coord":"206698.22680562999","point_lng":"4.3938362080000388","point_lat":"51.17029313200004"}]}