{"stadskantoor":[{"id":"PUB013","thema":"publiek","type":"stadskantoor","subtype":"stadskantoor","naam":"Stadskantoor Luchtbal","straat":"CANADALAAN","huisnummer":"158-160","postcode":"2030","district":"Antwerpen","lgst_niv":"wijk","hgst_niv":"stadsdeel","grondopp":"139.61000000000001","gebo":"GEBO2000024656","pero":" ","begindatum":"2004-01-01T00:00:00","point_lng":"4.4220803440000509","point_lat":"51.250414650000039"},{"id":"PUB012","thema":"publiek","type":"stadskantoor","subtype":"stadskantoor","naam":"Stadskantoor Kiel","straat":"SINT-BERNARDSESTEENWEG","huisnummer":"197","postcode":"2020","district":"Antwerpen","lgst_niv":"wijk","hgst_niv":"stadsdeel","grondopp":"264.11000000000001","gebo":"GEBO2000170579","pero":" ","begindatum":"2004-01-01T00:00:00","point_lng":"4.3765790010000387","point_lat":"51.187940835000063"},{"id":"PUB011","thema":"publiek","type":"stadskantoor","subtype":"stadskantoor","naam":"Stadskantoor Paleis","straat":"PALEISSTRAAT","huisnummer":"108-110","postcode":"2018","district":"Antwerpen","lgst_niv":"wijk","hgst_niv":"stadsdeel","grondopp":"517.94000000000005","gebo":"GEBO2000057808","pero":" ","begindatum":"2004-01-01T00:00:00","point_lng":"4.3974561900000708","point_lat":"51.205878769000037"},{"id":"PUB015","thema":"publiek","type":"stadskantoor","subtype":"stadskantoor","naam":"Stadskantoor Permeke","straat":"DE CONINCKPLEIN","huisnummer":"25","postcode":"2060","district":"Antwerpen","lgst_niv":"wijk","hgst_niv":"stadsdeel","grondopp":"219.62","gebo":"GEBO2000173422","pero":" ","begindatum":"2004-01-01T00:00:00","point_lng":"4.4210021330000586","point_lat":"51.221917674000053"},{"id":"PUB014","thema":"publiek","type":"stadskantoor","subtype":"stadskantoor","naam":"Stadskantoor Linkeroever","straat":"HALEWIJNLAAN","huisnummer":"86","postcode":"2050","district":"Antwerpen","lgst_niv":"wijk","hgst_niv":"stadsdeel","grondopp":"1381.4300000000001","gebo":"GEBO2000033305","pero":" ","begindatum":"2004-01-01T00:00:00","point_lng":"4.377630368000041","point_lat":"51.224590951000039"},{"id":"PUB017","thema":"publiek","type":"stadskantoor","subtype":"wijkkantoor","naam":"Wijkkantoor Borgerhout","straat":"GROENINGERPLEIN","huisnummer":"1","postcode":"2140","district":"Borgerhout","lgst_niv":"wijk","hgst_niv":"wijk","grondopp":"360.93000000000001","gebo":"GEBO2000048046","pero":" ","begindatum":"2004-01-01T00:00:00","point_lng":"4.4383972880000329","point_lat":"51.220255292000047"},{"id":"PUB016","thema":"publiek","type":"stadskantoor","subtype":"wijkkantoor","naam":"Wijkkantoor Berchem","straat":"STATIESTRAAT","huisnummer":"148","postcode":"2600","district":"Berchem","lgst_niv":"wijk","hgst_niv":"wijk","grondopp":"182.97999999999999","gebo":"GEBO2000069330","pero":" ","begindatum":"2004-01-01T00:00:00","point_lng":"4.4300290400000222","point_lat":"51.199787678000064"}]}